country_code,zip,city,state,stateCode,province,province_code,community,community_code,latitude,longitude
CH,5000,Aarau,Aargau,AG,Bezirk Aarau,1901,Aarau,4001,47.3887,8.0483
CH,5001,Aarau 1,Aargau,AG,Bezirk Aarau,1901,Aarau,4001,47.3888,8.0483
CH,5004,Aarau,Aargau,AG,Bezirk Aarau,1901,Aarau,4001,47.4007,8.0607
CH,5017,Barmelweid,Aargau,AG,Bezirk Aarau,1901,Erlinsbach (AG),4005,47.4219,7.9722
CH,5018,Erlinsbach,Aargau,AG,Bezirk Aarau,1901,Erlinsbach (AG),4005,47.4143,8.0077
CH,5022,Rombach,Aargau,AG,Bezirk Aarau,1901,Küttigen,4008,47.4052,8.0456
CH,5023,Biberstein,Aargau,AG,Bezirk Aarau,1901,Biberstein,4002,47.4188,8.083
CH,5024,Küttigen,Aargau,AG,Bezirk Aarau,1901,Küttigen,4008,47.4221,8.0439
CH,5025,Asp,Aargau,AG,Bezirk Aarau,1901,Densbüren,4004,47.4421,8.0506
CH,5026,Densbüren,Aargau,AG,Bezirk Aarau,1901,Densbüren,4004,47.4566,8.0599
CH,5032,Aarau Rohr,Aargau,AG,Bezirk Aarau,1901,Aarau,4001,47.4055,8.0841
CH,5033,Buchs AG,Aargau,AG,Bezirk Aarau,1901,Buchs (AG),4003,47.3937,8.0879
CH,5034,Suhr,Aargau,AG,Bezirk Aarau,1901,Suhr,4012,47.3749,8.084
CH,5035,Unterentfelden,Aargau,AG,Bezirk Aarau,1901,Unterentfelden,4013,47.3684,8.0427
CH,5036,Oberentfelden,Aargau,AG,Bezirk Aarau,1901,Oberentfelden,4010,47.3542,8.0413
CH,5037,Muhen,Aargau,AG,Bezirk Aarau,1901,Muhen,4009,47.3329,8.0627
CH,5042,Hirschthal,Aargau,AG,Bezirk Aarau,1901,Hirschthal,4007,47.3176,8.0671
CH,5722,Gränichen,Aargau,AG,Bezirk Aarau,1901,Gränichen,4006,47.3516,8.1066
CH,5300,Turgi,Aargau,AG,Bezirk Baden,1902,Turgi,4042,47.4901,8.2561
CH,5301,Siggenthal Station,Aargau,AG,Bezirk Baden,1902,Untersiggenthal,4044,47.5152,8.238
CH,5303,Würenlingen,Aargau,AG,Bezirk Baden,1902,Würenlingen,4047,47.5321,8.2492
CH,5400,Baden,Aargau,AG,Bezirk Baden,1902,Baden,4021,47.4721,8.2914
CH,5401,Baden,Aargau,AG,Bezirk Baden,1902,Baden,4021,47.4733,8.3059
CH,5402,Baden,Aargau,AG,Bezirk Baden,1902,Baden,4021,47.4733,8.3059
CH,5404,Baden,Aargau,AG,Bezirk Baden,1902,Baden,4021,47.4549,8.2783
CH,5405,Dättwil AG,Aargau,AG,Bezirk Baden,1902,Baden,4021,47.4537,8.2899
CH,5405,Baden,Aargau,AG,Bezirk Baden,1902,Baden,4021,47.4733,8.3059
CH,5406,Baden,Aargau,AG,Bezirk Baden,1902,Baden,4021,47.4733,8.3059
CH,5406,Rütihof,Aargau,AG,Bezirk Baden,1902,Baden,4021,47.4381,8.2659
CH,5408,Ennetbaden,Aargau,AG,Bezirk Baden,1902,Ennetbaden,4026,47.4804,8.3235
CH,5412,Vogelsang AG,Aargau,AG,Bezirk Baden,1902,Gebenstorf,4029,47.4974,8.2393
CH,5412,Gebenstorf,Aargau,AG,Bezirk Baden,1902,Gebenstorf,4029,47.4782,8.2487
CH,5413,Birmenstorf AG,Aargau,AG,Bezirk Baden,1902,Birmenstorf (AG),4024,47.4558,8.2562
CH,5415,Rieden AG,Aargau,AG,Bezirk Baden,1902,Obersiggenthal,4038,47.4839,8.304
CH,5415,Nussbaumen AG,Aargau,AG,Bezirk Baden,1902,Obersiggenthal,4038,47.4935,8.2967
CH,5415,Hertenstein AG,Aargau,AG,Bezirk Baden,1902,Obersiggenthal,4038,47.4888,8.3158
CH,5416,Kirchdorf AG,Aargau,AG,Bezirk Baden,1902,Obersiggenthal,4038,47.499,8.2801
CH,5417,Untersiggenthal,Aargau,AG,Bezirk Baden,1902,Untersiggenthal,4044,47.5067,8.2584
CH,5420,Ehrendingen,Aargau,AG,Bezirk Baden,1902,Ehrendingen,4049,47.4943,8.3468
CH,5423,Freienwil,Aargau,AG,Bezirk Baden,1902,Freienwil,4028,47.5014,8.319
CH,5430,Wettingen,Aargau,AG,Bezirk Baden,1902,Wettingen,4045,47.4666,8.3412
CH,5430,Wettingen 1,Aargau,AG,Bezirk Baden,1902,Wettingen,4045,47.4668,8.3412
CH,5430,Wettingen 3,Aargau,AG,Bezirk Baden,1902,Wettingen,4045,47.4668,8.3412
CH,5432,Neuenhof,Aargau,AG,Bezirk Baden,1902,Neuenhof,4034,47.4441,8.3251
CH,5436,Würenlos,Aargau,AG,Bezirk Baden,1902,Würenlos,4048,47.4473,8.3639
CH,5442,Fislisbach,Aargau,AG,Bezirk Baden,1902,Fislisbach,4027,47.4374,8.2907
CH,5443,Niederrohrdorf,Aargau,AG,Bezirk Baden,1902,Niederrohrdorf,4035,47.4201,8.3013
CH,5444,Künten,Aargau,AG,Bezirk Baden,1902,Künten,4031,47.386,8.3254
CH,5452,Oberrohrdorf,Aargau,AG,Bezirk Baden,1902,Oberrohrdorf,4037,47.4251,8.3205
CH,5453,Remetschwil,Aargau,AG,Bezirk Baden,1902,Remetschwil,4039,47.4083,8.3319
CH,5454,Bellikon,Aargau,AG,Bezirk Baden,1902,Bellikon,4022,47.3916,8.3494
CH,5506,Mägenwil,Aargau,AG,Bezirk Baden,1902,Mägenwil,4032,47.4123,8.2342
CH,5507,Mellingen,Aargau,AG,Bezirk Baden,1902,Mellingen,4033,47.4211,8.2742
CH,5512,Wohlenschwil,Aargau,AG,Bezirk Baden,1902,Wohlenschwil,4046,47.4167,8.2543
CH,5608,Stetten AG,Aargau,AG,Bezirk Baden,1902,Stetten (AG),4041,47.4013,8.3051
CH,8109,Kloster Fahr,Aargau,AG,Bezirk Baden,1902,Würenlos,4048,47.4083,8.4391
CH,8956,Killwangen,Aargau,AG,Bezirk Baden,1902,Killwangen,4030,47.428,8.3443
CH,8957,Spreitenbach,Aargau,AG,Bezirk Baden,1902,Spreitenbach,4040,47.418,8.3672
CH,8962,Bergdietikon,Aargau,AG,Bezirk Baden,1902,Bergdietikon,4023,47.3881,8.3785
CH,5445,Eggenwil,Aargau,AG,Bezirk Bremgarten,1903,Eggenwil,4066,47.3716,8.3385
CH,5522,Tägerig,Aargau,AG,Bezirk Bremgarten,1903,Tägerig,4077,47.3992,8.2789
CH,5524,Nesselnbach,Aargau,AG,Bezirk Bremgarten,1903,Niederwil (AG),4072,47.3906,8.2968
CH,5524,Niederwil AG,Aargau,AG,Bezirk Bremgarten,1903,Niederwil (AG),4072,47.3763,8.2905
CH,5525,Fischbach-Göslikon,Aargau,AG,Bezirk Bremgarten,1903,Fischbach-Göslikon,4067,47.3691,8.3111
CH,5605,Dottikon,Aargau,AG,Bezirk Bremgarten,1903,Dottikon,4065,47.3779,8.2415
CH,5607,Hägglingen,Aargau,AG,Bezirk Bremgarten,1903,Hägglingen,4068,47.39,8.2576
CH,5610,Wohlen AG,Aargau,AG,Bezirk Bremgarten,1903,Wohlen (AG),4082,47.3503,8.2836
CH,5610,Wohlen AG 1,Aargau,AG,Bezirk Bremgarten,1903,Wohlen (AG),4082,47.3533,8.2807
CH,5611,Anglikon,Aargau,AG,Bezirk Bremgarten,1903,Wohlen (AG),4082,47.3665,8.2631
CH,5612,Villmergen,Aargau,AG,Bezirk Bremgarten,1903,Villmergen,4080,47.3475,8.2403
CH,5613,Hilfikon,Aargau,AG,Bezirk Bremgarten,1903,Villmergen,4080,47.3308,8.2453
CH,5614,Sarmenstorf,Aargau,AG,Bezirk Bremgarten,1903,Sarmenstorf,4076,47.3117,8.2524
CH,5619,Büttikon AG,Aargau,AG,Bezirk Bremgarten,1903,Büttikon,4064,47.3282,8.2683
CH,5619,Uezwil,Aargau,AG,Bezirk Bremgarten,1903,Uezwil,4078,47.315,8.2778
CH,5620,Bremgarten AG 1,Aargau,AG,Bezirk Bremgarten,1903,Bremgarten (AG),4063,47.3535,8.3298
CH,5620,Bremgarten AG,Aargau,AG,Bezirk Bremgarten,1903,Bremgarten (AG),4063,47.3535,8.3299
CH,5621,Zufikon,Aargau,AG,Bezirk Bremgarten,1903,Zufikon,4083,47.3447,8.3582
CH,5626,Hermetschwil-Staffeln,Aargau,AG,Bezirk Bremgarten,1903,Bremgarten (AG),4063,47.3304,8.3415
CH,8905,Islisberg,Aargau,AG,Bezirk Bremgarten,1903,Islisberg,4084,47.3233,8.4412
CH,8905,Arni AG,Aargau,AG,Bezirk Bremgarten,1903,Arni (AG),4061,47.317,8.4223
CH,8905,Arni-Islisberg,Aargau,AG,Bezirk Bremgarten,1903,Arni (AG),4061,47.317,8.4223
CH,8916,Jonen,Aargau,AG,Bezirk Bremgarten,1903,Jonen,4071,47.2997,8.4022
CH,8917,Oberlunkhofen,Aargau,AG,Bezirk Bremgarten,1903,Oberlunkhofen,4073,47.3125,8.3977
CH,8918,Unterlunkhofen,Aargau,AG,Bezirk Bremgarten,1903,Unterlunkhofen,4079,47.3248,8.3832
CH,8964,Rudolfstetten,Aargau,AG,Bezirk Bremgarten,1903,Rudolfstetten-Friedlisberg,4075,47.3683,8.3847
CH,8965,Berikon,Aargau,AG,Bezirk Bremgarten,1903,Berikon,4062,47.3538,8.3837
CH,8966,Oberwil-Lieli,Aargau,AG,Bezirk Bremgarten,1903,Oberwil-Lieli,4074,47.3371,8.3952
CH,8967,Widen,Aargau,AG,Bezirk Bremgarten,1903,Widen,4081,47.3705,8.3583
CH,5105,Auenstein,Aargau,AG,Bezirk Brugg,1904,Auenstein,4091,47.4185,8.1262
CH,5106,Veltheim AG,Aargau,AG,Bezirk Brugg,1904,Veltheim (AG),4120,47.4318,8.1484
CH,5107,Schinznach Dorf,Aargau,AG,Bezirk Brugg,1904,Schinznach,4125,47.4543,8.139
CH,5108,Oberflachs,Aargau,AG,Bezirk Brugg,1904,Schinznach,4125,47.4379,8.1229
CH,5112,Thalheim AG,Aargau,AG,Bezirk Brugg,1904,Thalheim (AG),4117,47.4392,8.0934
CH,5116,Schinznach Bad,Aargau,AG,Bezirk Brugg,1904,Brugg,4095,47.4538,8.1687
CH,5200,Brugg AG,Aargau,AG,Bezirk Brugg,1904,Brugg,4095,47.4864,8.2112
CH,5201,Brugg AG,Aargau,AG,Bezirk Brugg,1904,Brugg,4095,47.4863,8.211
CH,5210,Windisch,Aargau,AG,Bezirk Brugg,1904,Windisch,4123,47.4759,8.2221
CH,5212,Hausen AG,Aargau,AG,Bezirk Brugg,1904,Hausen (AG),4100,47.4613,8.2074
CH,5213,Villnachern,Aargau,AG,Bezirk Brugg,1904,Villnachern,4122,47.4725,8.1625
CH,5222,Umiken,Aargau,AG,Bezirk Brugg,1904,Brugg,4095,47.4812,8.1867
CH,5223,Riniken,Aargau,AG,Bezirk Brugg,1904,Riniken,4111,47.4939,8.1867
CH,5225,Bözberg,Aargau,AG,Bezirk Brugg,1904,Bözberg,4124,47.4891,8.145
CH,5232,Villigen PSI,Aargau,AG,Bezirk Brugg,1904,Villigen,4121,47.5296,8.2072
CH,5233,Stilli,Aargau,AG,Bezirk Brugg,1904,Villigen,4121,47.5165,8.2315
CH,5234,Villigen,Aargau,AG,Bezirk Brugg,1904,Villigen,4121,47.5301,8.2063
CH,5235,Rüfenach AG,Aargau,AG,Bezirk Brugg,1904,Rüfenach,4112,47.5049,8.2127
CH,5236,Remigen,Aargau,AG,Bezirk Brugg,1904,Remigen,4110,47.5174,8.1759
CH,5237,Mönthal,Aargau,AG,Bezirk Brugg,1904,Mönthal,4106,47.5165,8.1376
CH,5242,Birr,Aargau,AG,Bezirk Brugg,1904,Birr,4092,47.4322,8.2121
CH,5242,Birr-Lupfig,Aargau,AG,Bezirk Brugg,1904,Lupfig,4104,47.4437,8.2076
CH,5242,Lupfig,Aargau,AG,Bezirk Brugg,1904,Lupfig,4104,47.4436,8.2075
CH,5243,Mülligen,Aargau,AG,Bezirk Brugg,1904,Mülligen,4107,47.4524,8.2385
CH,5244,Birrhard,Aargau,AG,Bezirk Brugg,1904,Birrhard,4093,47.4361,8.2423
CH,5245,Habsburg,Aargau,AG,Bezirk Brugg,1904,Habsburg,4099,47.4614,8.186
CH,5246,Scherz,Aargau,AG,Bezirk Brugg,1904,Lupfig,4104,47.4469,8.1842
CH,5318,Mandach,Aargau,AG,Bezirk Brugg,1904,Mandach,4105,47.5515,8.1877
CH,5040,Schöftland,Aargau,AG,Bezirk Kulm,1905,Schöftland,4144,47.3054,8.0557
CH,5043,Holziken,Aargau,AG,Bezirk Kulm,1905,Holziken,4136,47.3195,8.0343
CH,5044,Schlossrued,Aargau,AG,Bezirk Kulm,1905,Schlossrued,4142,47.2902,8.0884
CH,5046,Schmiedrued,Aargau,AG,Bezirk Kulm,1905,Schmiedrued,4143,47.271,8.1087
CH,5046,Walde AG,Aargau,AG,Bezirk Kulm,1905,Schmiedrued,4143,47.2535,8.1161
CH,5046,Schmiedrued-Walde,Aargau,AG,Bezirk Kulm,1905,Schmiedrued,4143,47.2632,8.1117
CH,5708,Birrwil,Aargau,AG,Bezirk Kulm,1905,Birrwil,4132,47.2919,8.1981
CH,5712,Beinwil am See,Aargau,AG,Bezirk Kulm,1905,Beinwil am See,4131,47.2665,8.2086
CH,5723,Teufenthal AG,Aargau,AG,Bezirk Kulm,1905,Teufenthal (AG),4145,47.3281,8.1259
CH,5724,Dürrenäsch,Aargau,AG,Bezirk Kulm,1905,Dürrenäsch,4134,47.3186,8.1544
CH,5725,Leutwil,Aargau,AG,Bezirk Kulm,1905,Leutwil,4138,47.3056,8.1738
CH,5726,Unterkulm,Aargau,AG,Bezirk Kulm,1905,Unterkulm,4146,47.3177,8.1032
CH,5727,Oberkulm,Aargau,AG,Bezirk Kulm,1905,Oberkulm,4140,47.2984,8.1259
CH,5728,Gontenschwil,Aargau,AG,Bezirk Kulm,1905,Gontenschwil,4135,47.2676,8.1415
CH,5732,Zetzwil,Aargau,AG,Bezirk Kulm,1905,Zetzwil,4147,47.2883,8.162
CH,5733,Leimbach AG,Aargau,AG,Bezirk Kulm,1905,Leimbach (AG),4137,47.2749,8.1701
CH,5734,Reinach AG,Aargau,AG,Bezirk Kulm,1905,Reinach (AG),4141,47.2612,8.1793
CH,5736,Burg AG,Aargau,AG,Bezirk Kulm,1905,Burg (AG),4133,47.2339,8.178
CH,5737,Menziken,Aargau,AG,Bezirk Kulm,1905,Menziken,4139,47.236,8.1865
CH,4333,Münchwilen AG,Aargau,AG,Bezirk Laufenburg,1906,Münchwilen (AG),4172,47.5375,7.9642
CH,4334,Sisseln AG,Aargau,AG,Bezirk Laufenburg,1906,Sisseln,4177,47.5522,7.9853
CH,5027,Herznach,Aargau,AG,Bezirk Laufenburg,1906,Herznach,4166,47.4721,8.0465
CH,5028,Ueken,Aargau,AG,Bezirk Laufenburg,1906,Ueken,4179,47.4854,8.0434
CH,5062,Oberhof,Aargau,AG,Bezirk Laufenburg,1906,Oberhof,4173,47.4418,8.007
CH,5063,Wölflinswil,Aargau,AG,Bezirk Laufenburg,1906,Wölflinswil,4182,47.4628,8.0002
CH,5064,Wittnau,Aargau,AG,Bezirk Laufenburg,1906,Wittnau,4181,47.4771,7.9661
CH,5070,Frick,Aargau,AG,Bezirk Laufenburg,1906,Frick,4163,47.5097,8.0142
CH,5072,Oeschgen,Aargau,AG,Bezirk Laufenburg,1906,Oeschgen,4175,47.5249,8.0171
CH,5073,Gipf-Oberfrick,Aargau,AG,Bezirk Laufenburg,1906,Gipf-Oberfrick,4165,47.4931,7.9962
CH,5074,Eiken,Aargau,AG,Bezirk Laufenburg,1906,Eiken,4161,47.537,7.9892
CH,5075,Hornussen,Aargau,AG,Bezirk Laufenburg,1906,Böztal,4185,47.5016,8.0625
CH,5076,Bözen,Aargau,AG,Bezirk Laufenburg,1906,Böztal,4185,47.4964,8.0859
CH,5077,Elfingen,Aargau,AG,Bezirk Laufenburg,1906,Böztal,4185,47.51,8.1022
CH,5078,Effingen,Aargau,AG,Bezirk Laufenburg,1906,Böztal,4185,47.4928,8.1125
CH,5079,Zeihen,Aargau,AG,Bezirk Laufenburg,1906,Zeihen,4183,47.4705,8.0931
CH,5080,Laufenburg,Aargau,AG,Bezirk Laufenburg,1906,Laufenburg,4170,47.556,8.0608
CH,5082,Kaisten,Aargau,AG,Bezirk Laufenburg,1906,Kaisten,4169,47.5386,8.0448
CH,5083,Ittenthal,Aargau,AG,Bezirk Laufenburg,1906,Kaisten,4169,47.519,8.0622
CH,5084,Rheinsulz,Aargau,AG,Bezirk Laufenburg,1906,Laufenburg,4170,47.5528,8.0867
CH,5085,Sulz AG,Aargau,AG,Bezirk Laufenburg,1906,Laufenburg,4170,47.5343,8.098
CH,5272,Gansingen,Aargau,AG,Bezirk Laufenburg,1906,Gansingen,4164,47.5372,8.1317
CH,5273,Oberhofen AG,Aargau,AG,Bezirk Laufenburg,1906,Mettauertal,4184,47.5562,8.1252
CH,5274,Mettau,Aargau,AG,Bezirk Laufenburg,1906,Mettauertal,4184,47.569,8.1301
CH,5275,Etzgen,Aargau,AG,Bezirk Laufenburg,1906,Mettauertal,4184,47.5743,8.1137
CH,5276,Wil AG,Aargau,AG,Bezirk Laufenburg,1906,Mettauertal,4184,47.5662,8.1575
CH,5277,Hottwil,Aargau,AG,Bezirk Laufenburg,1906,Mettauertal,4184,47.5423,8.1638
CH,5326,Schwaderloch,Aargau,AG,Bezirk Laufenburg,1906,Schwaderloch,4176,47.5858,8.1457
CH,5102,Rupperswil,Aargau,AG,Bezirk Lenzburg,1907,Rupperswil,4206,47.4038,8.1311
CH,5103,Möriken AG,Aargau,AG,Bezirk Lenzburg,1907,Möriken-Wildegg,4203,47.4165,8.191
CH,5103,Wildegg,Aargau,AG,Bezirk Lenzburg,1907,Möriken-Wildegg,4203,47.4159,8.1651
CH,5113,Holderbank AG,Aargau,AG,Bezirk Lenzburg,1907,Holderbank (AG),4199,47.4309,8.1707
CH,5502,Hunzenschwil,Aargau,AG,Bezirk Lenzburg,1907,Hunzenschwil,4200,47.3842,8.1229
CH,5503,Schafisheim,Aargau,AG,Bezirk Lenzburg,1907,Schafisheim,4207,47.3737,8.1391
CH,5504,Othmarsingen,Aargau,AG,Bezirk Lenzburg,1907,Othmarsingen,4205,47.4016,8.2146
CH,5505,Brunegg,Aargau,AG,Bezirk Lenzburg,1907,Brunegg,4193,47.4207,8.2199
CH,5600,Ammerswil AG,Aargau,AG,Bezirk Lenzburg,1907,Ammerswil,4191,47.3682,8.2057
CH,5600,Lenzburg,Aargau,AG,Bezirk Lenzburg,1907,Lenzburg,4201,47.3855,8.1805
CH,5600,Lenzburg 1,Aargau,AG,Bezirk Lenzburg,1907,Lenzburg,4201,47.3856,8.1805
CH,5603,Staufen,Aargau,AG,Bezirk Lenzburg,1907,Staufen,4210,47.3788,8.16
CH,5604,Hendschiken,Aargau,AG,Bezirk Lenzburg,1907,Hendschiken,4198,47.3846,8.2159
CH,5606,Dintikon,Aargau,AG,Bezirk Lenzburg,1907,Dintikon,4194,47.3616,8.2218
CH,5615,Fahrwangen,Aargau,AG,Bezirk Lenzburg,1907,Fahrwangen,4196,47.2863,8.2392
CH,5616,Meisterschwanden,Aargau,AG,Bezirk Lenzburg,1907,Meisterschwanden,4202,47.2902,8.2258
CH,5617,Tennwil,Aargau,AG,Bezirk Lenzburg,1907,Meisterschwanden,4202,47.3062,8.2191
CH,5702,Niederlenz,Aargau,AG,Bezirk Lenzburg,1907,Niederlenz,4204,47.4034,8.1704
CH,5703,Seon,Aargau,AG,Bezirk Lenzburg,1907,Seon,4209,47.3482,8.1576
CH,5704,Egliswil,Aargau,AG,Bezirk Lenzburg,1907,Egliswil,4195,47.3517,8.1903
CH,5705,Hallwil,Aargau,AG,Bezirk Lenzburg,1907,Hallwil,4197,47.3265,8.1779
CH,5706,Boniswil,Aargau,AG,Bezirk Lenzburg,1907,Boniswil,4192,47.3118,8.1921
CH,5707,Seengen,Aargau,AG,Bezirk Lenzburg,1907,Seengen,4208,47.3283,8.2087
CH,5618,Bettwil,Aargau,AG,Bezirk Muri,1908,Bettwil,4227,47.2902,8.2717
CH,5622,Waltenschwil,Aargau,AG,Bezirk Muri,1908,Waltenschwil,4240,47.3341,8.2989
CH,5623,Boswil,Aargau,AG,Bezirk Muri,1908,Boswil,4228,47.2998,8.3092
CH,5624,Bünzen,Aargau,AG,Bezirk Muri,1908,Bünzen,4229,47.3156,8.3263
CH,5624,Waldhäusern AG,Aargau,AG,Bezirk Muri,1908,Bünzen,4229,47.3274,8.3164
CH,5625,Kallern,Aargau,AG,Bezirk Muri,1908,Kallern,4233,47.3095,8.2901
CH,5627,Besenbüren,Aargau,AG,Bezirk Muri,1908,Besenbüren,4226,47.3128,8.3449
CH,5628,Aristau,Aargau,AG,Bezirk Muri,1908,Aristau,4222,47.2912,8.3647
CH,5630,Muri AG,Aargau,AG,Bezirk Muri,1908,Muri (AG),4236,47.272,8.3393
CH,5632,Buttwil,Aargau,AG,Bezirk Muri,1908,Buttwil,4230,47.2688,8.3063
CH,5634,Merenschwand,Aargau,AG,Bezirk Muri,1908,Merenschwand,4234,47.2627,8.3839
CH,5636,Benzenschwil,Aargau,AG,Bezirk Muri,1908,Merenschwand,4234,47.2465,8.3637
CH,5637,Geltwil,Aargau,AG,Bezirk Muri,1908,Geltwil,4232,47.249,8.326
CH,5637,Beinwil (Freiamt),Aargau,AG,Bezirk Muri,1908,Beinwil (Freiamt),4224,47.2295,8.3392
CH,5642,Mühlau,Aargau,AG,Bezirk Muri,1908,Mühlau,4235,47.2342,8.3891
CH,5643,Sins,Aargau,AG,Bezirk Muri,1908,Sins,4239,47.196,8.3851
CH,5643,Alikon,Aargau,AG,Bezirk Muri,1908,Sins,4239,47.1965,8.3524
CH,5643,Meienberg,Aargau,AG,Bezirk Muri,1908,Sins,4239,47.1976,8.3767
CH,5643,Sins,Aargau,AG,Bezirk Muri,1908,Sins,4239,47.196,8.3851
CH,5644,Auw,Aargau,AG,Bezirk Muri,1908,Auw,4223,47.2148,8.3627
CH,5645,Aettenschwil,Aargau,AG,Bezirk Muri,1908,Sins,4239,47.1838,8.3727
CH,5645,Fenkrieden,Aargau,AG,Bezirk Muri,1908,Sins,4239,47.1595,8.3712
CH,5646,Abtwil AG,Aargau,AG,Bezirk Muri,1908,Abtwil,4221,47.174,8.3538
CH,5647,Oberrüti,Aargau,AG,Bezirk Muri,1908,Oberrüti,4237,47.1669,8.3986
CH,6042,Dietwil,Aargau,AG,Bezirk Muri,1908,Dietwil,4231,47.1483,8.3963
CH,8919,Rottenschwil,Aargau,AG,Bezirk Muri,1908,Rottenschwil,4238,47.3144,8.3659
CH,4303,Kaiseraugst Liebrüti,Aargau,AG,Bezirk Rheinfelden,1909,Kaiseraugst,4252,47.5361,7.7421
CH,4303,Kaiseraugst,Aargau,AG,Bezirk Rheinfelden,1909,Kaiseraugst,4252,47.5364,7.7428
CH,4305,Olsberg,Aargau,AG,Bezirk Rheinfelden,1909,Olsberg,4257,47.526,7.7777
CH,4310,Rheinfelden,Aargau,AG,Bezirk Rheinfelden,1909,Rheinfelden,4258,47.5493,7.7982
CH,4310,Rheinfelden 1,Aargau,AG,Bezirk Rheinfelden,1909,Rheinfelden,4258,47.5559,7.8045
CH,4312,Magden,Aargau,AG,Bezirk Rheinfelden,1909,Magden,4253,47.5196,7.8096
CH,4313,Möhlin,Aargau,AG,Bezirk Rheinfelden,1909,Möhlin,4254,47.5655,7.8489
CH,4314,Zeiningen,Aargau,AG,Bezirk Rheinfelden,1909,Zeiningen,4263,47.5433,7.8762
CH,4315,Zuzgen,Aargau,AG,Bezirk Rheinfelden,1909,Zuzgen,4264,47.5243,7.8999
CH,4316,Hellikon,Aargau,AG,Bezirk Rheinfelden,1909,Hellikon,4251,47.5089,7.9167
CH,4317,Wegenstetten,Aargau,AG,Bezirk Rheinfelden,1909,Wegenstetten,4262,47.4939,7.9312
CH,4322,Mumpf,Aargau,AG,Bezirk Rheinfelden,1909,Mumpf,4255,47.5451,7.9135
CH,4323,Wallbach,Aargau,AG,Bezirk Rheinfelden,1909,Wallbach,4261,47.568,7.8979
CH,4324,Obermumpf,Aargau,AG,Bezirk Rheinfelden,1909,Obermumpf,4256,47.5299,7.937
CH,4325,Schupfart,Aargau,AG,Bezirk Rheinfelden,1909,Schupfart,4259,47.5134,7.9625
CH,4332,Stein AG,Aargau,AG,Bezirk Rheinfelden,1909,Stein (AG),4260,47.5452,7.9528
CH,4663,Aarburg,Aargau,AG,Bezirk Zofingen,1910,Aarburg,4271,47.3236,7.9057
CH,4665,Oftringen 1,Aargau,AG,Bezirk Zofingen,1910,Oftringen,4280,47.3134,7.939
CH,4665,Oftringen 2,Aargau,AG,Bezirk Zofingen,1910,Oftringen,4280,47.3134,7.939
CH,4665,Oftringen,Aargau,AG,Bezirk Zofingen,1910,Oftringen,4280,47.313,7.9391
CH,4800,Zofingen,Aargau,AG,Bezirk Zofingen,1910,Zofingen,4289,47.2865,7.9576
CH,4801,Zofingen Ringier AG,Aargau,AG,Bezirk Zofingen,1910,Zofingen,4289,47.2888,7.9633
CH,4801,Zofingen,Aargau,AG,Bezirk Zofingen,1910,Zofingen,4289,47.2888,7.9633
CH,4802,Strengelbach,Aargau,AG,Bezirk Zofingen,1910,Strengelbach,4285,47.2834,7.9225
CH,4803,Vordemwald,Aargau,AG,Bezirk Zofingen,1910,Vordemwald,4287,47.2694,7.8926
CH,4805,Brittnau,Aargau,AG,Bezirk Zofingen,1910,Brittnau,4274,47.2546,7.9287
CH,4807,Zofingen PostFinance,Aargau,AG,Bezirk Zofingen,1910,Zofingen,4289,47.2888,7.9633
CH,4807,Zofingen PF,Aargau,AG,Bezirk Zofingen,1910,Zofingen,4289,47.2888,7.9633
CH,4808,Zofingen PostFinance,Aargau,AG,Bezirk Zofingen,1910,Zofingen,4289,47.2888,7.9633
CH,4808,Zofingen PF,Aargau,AG,Bezirk Zofingen,1910,Zofingen,4289,47.2888,7.9633
CH,4809,Zofingen Postfinance UBS,Aargau,AG,Bezirk Zofingen,1910,Zofingen,4289,47.2888,7.9633
CH,4809,Zofingen PF,Aargau,AG,Bezirk Zofingen,1910,Zofingen,4289,47.2888,7.9633
CH,4809,Zofingen PF UBS,Aargau,AG,Bezirk Zofingen,1910,Zofingen,4289,47.2888,7.9633
CH,4809,Zofingen PF UBS Verarb.,Aargau,AG,Bezirk Zofingen,1910,Zofingen,4289,47.2888,7.9633
CH,4810,Zofingen PF,Aargau,AG,Bezirk Zofingen,1910,Zofingen,4289,47.2888,7.9633
CH,4812,Mühlethal,Aargau,AG,Bezirk Zofingen,1910,Zofingen,4289,47.299,7.9784
CH,4813,Uerkheim,Aargau,AG,Bezirk Zofingen,1910,Uerkheim,4286,47.3042,8.01
CH,4814,Bottenwil,Aargau,AG,Bezirk Zofingen,1910,Bottenwil,4273,47.2847,8.0021
CH,4852,Rothrist,Aargau,AG,Bezirk Zofingen,1910,Rothrist,4282,47.2983,7.8836
CH,4853,Murgenthal,Aargau,AG,Bezirk Zofingen,1910,Murgenthal,4279,47.2698,7.8388
CH,4853,Riken AG,Aargau,AG,Bezirk Zofingen,1910,Murgenthal,4279,47.2729,7.8612
CH,4853,Murgenthal,Aargau,AG,Bezirk Zofingen,1910,Murgenthal,4279,47.2698,7.8388
CH,4856,Glashütten,Aargau,AG,Bezirk Zofingen,1910,Murgenthal,4279,47.2492,7.8546
CH,5053,Wittwil,Aargau,AG,Bezirk Zofingen,1910,Staffelbach,4284,47.2931,8.0359
CH,5053,Staffelbach,Aargau,AG,Bezirk Zofingen,1910,Staffelbach,4284,47.2813,8.0391
CH,5054,Kirchleerau-Moosleerau,Aargau,AG,Bezirk Zofingen,1910,Kirchleerau,4275,47.2772,8.0741
CH,5054,Moosleerau,Aargau,AG,Bezirk Zofingen,1910,Moosleerau,4277,47.2645,8.0661
CH,5054,Kirchleerau,Aargau,AG,Bezirk Zofingen,1910,Kirchleerau,4275,47.2772,8.074
CH,5056,Attelwil,Aargau,AG,Bezirk Zofingen,1910,Reitnau,4281,47.2634,8.0397
CH,5057,Reitnau,Aargau,AG,Bezirk Zofingen,1910,Reitnau,4281,47.2515,8.0354
CH,5058,Wiliberg,Aargau,AG,Bezirk Zofingen,1910,Wiliberg,4288,47.2669,8.0166
CH,5742,Kölliken,Aargau,AG,Bezirk Zofingen,1910,Kölliken,4276,47.3347,8.021
CH,5745,Safenwil,Aargau,AG,Bezirk Zofingen,1910,Safenwil,4283,47.3197,7.9869
CH,5304,Endingen,Aargau,AG,Bezirk Zurzach,1911,Endingen,4305,47.5307,8.2901
CH,5305,Unterendingen,Aargau,AG,Bezirk Zurzach,1911,Endingen,4305,47.5461,8.289
CH,5306,Tegerfelden,Aargau,AG,Bezirk Zurzach,1911,Tegerfelden,4320,47.5619,8.2849
CH,5312,Döttingen,Aargau,AG,Bezirk Zurzach,1911,Döttingen,4304,47.56,8.253
CH,5313,Klingnau,Aargau,AG,Bezirk Zurzach,1911,Klingnau,4309,47.5886,8.2507
CH,5314,Kleindöttingen,Aargau,AG,Bezirk Zurzach,1911,Böttstein,4303,47.5692,8.238
CH,5315,Böttstein,Aargau,AG,Bezirk Zurzach,1911,Böttstein,4303,47.5529,8.2181
CH,5316,Leuggern,Aargau,AG,Bezirk Zurzach,1911,Leuggern,4313,47.584,8.2169
CH,5317,Hettenschwil,Aargau,AG,Bezirk Zurzach,1911,Leuggern,4313,47.5739,8.1939
CH,5322,Koblenz,Aargau,AG,Bezirk Zurzach,1911,Koblenz,4310,47.6044,8.2447
CH,5323,Rietheim,Aargau,AG,Bezirk Zurzach,1911,Zurzach,4324,47.6029,8.2739
CH,5324,Full-Reuenthal,Aargau,AG,Bezirk Zurzach,1911,Full-Reuenthal,4307,47.6087,8.2028
CH,5325,Leibstadt,Aargau,AG,Bezirk Zurzach,1911,Leibstadt,4311,47.5897,8.1784
CH,5330,Bad Zurzach,Aargau,AG,Bezirk Zurzach,1911,Zurzach,4324,47.5859,8.292
CH,5332,Rekingen AG,Aargau,AG,Bezirk Zurzach,1911,Zurzach,4324,47.5671,8.3218
CH,5333,Baldingen,Aargau,AG,Bezirk Zurzach,1911,Zurzach,4324,47.5548,8.3136
CH,5334,Böbikon,Aargau,AG,Bezirk Zurzach,1911,Zurzach,4324,47.5504,8.3379
CH,5425,Schneisingen,Aargau,AG,Bezirk Zurzach,1911,Schneisingen,4318,47.5249,8.3617
CH,5426,Lengnau AG,Aargau,AG,Bezirk Zurzach,1911,Lengnau (AG),4312,47.5251,8.3241
CH,5462,Siglistorf,Aargau,AG,Bezirk Zurzach,1911,Siglistorf,4319,47.5387,8.387
CH,5463,Wislikofen,Aargau,AG,Bezirk Zurzach,1911,Zurzach,4324,47.5537,8.3667
CH,5464,Rümikon AG,Aargau,AG,Bezirk Zurzach,1911,Zurzach,4324,47.5643,8.3806
CH,5465,Mellikon,Aargau,AG,Bezirk Zurzach,1911,Mellikon,4314,47.5633,8.3472
CH,5466,Kaiserstuhl AG,Aargau,AG,Bezirk Zurzach,1911,Zurzach,4324,47.5677,8.419
CH,5467,Fisibach,Aargau,AG,Bezirk Zurzach,1911,Fisibach,4306,47.5583,8.4047
CH,9050,Appenzell,Appenzell Innerrhoden,AI,Appenzell Inner Rhodes,1600,Appenzell,3101,47.3238,9.4038
CH,9050,Appenzell Enggenhütten,Appenzell Innerrhoden,AI,Appenzell Inner Rhodes,1600,Schlatt-Haslen,3104,47.3491,9.3614
CH,9050,Appenzell Schlatt,Appenzell Innerrhoden,AI,Appenzell Inner Rhodes,1600,Schlatt-Haslen,3104,47.3563,9.4015
CH,9050,Appenzell Steinegg,Appenzell Innerrhoden,AI,Appenzell Inner Rhodes,1600,Rüte,3103,47.3211,9.4522
CH,9050,Appenzell Meistersrüte,Appenzell Innerrhoden,AI,Appenzell Inner Rhodes,1600,Appenzell,3101,47.348,9.4364
CH,9050,Appenzell Eggerstanden,Appenzell Innerrhoden,AI,Appenzell Inner Rhodes,1600,Rüte,3103,47.334,9.4797
CH,9054,Haslen AI,Appenzell Innerrhoden,AI,Appenzell Inner Rhodes,1600,Schlatt-Haslen,3104,47.3692,9.3788
CH,9057,Schwende,Appenzell Innerrhoden,AI,Appenzell Inner Rhodes,1600,Schwende,3105,47.2965,9.4345
CH,9057,Wasserauen,Appenzell Innerrhoden,AI,Appenzell Inner Rhodes,1600,Schwende,3105,47.2644,9.3918
CH,9057,Weissbad,Appenzell Innerrhoden,AI,Appenzell Inner Rhodes,1600,Rüte,3103,47.2868,9.3818
CH,9058,Brülisau,Appenzell Innerrhoden,AI,Appenzell Inner Rhodes,1600,Rüte,3103,47.2799,9.4497
CH,9108,Gonten,Appenzell Innerrhoden,AI,Appenzell Inner Rhodes,1600,Gonten,3102,47.3237,9.3494
CH,9108,Gontenbad,Appenzell Innerrhoden,AI,Appenzell Inner Rhodes,1600,Gonten,3102,47.3259,9.3707
CH,9108,Jakobsbad,Appenzell Innerrhoden,AI,Appenzell Inner Rhodes,1600,Gonten,3102,47.3064,9.3299
CH,9413,Oberegg,Appenzell Innerrhoden,AI,Appenzell Inner Rhodes,1600,Oberegg,3111,47.4165,9.5533
CH,9413,Oberegg,Appenzell Innerrhoden,AI,Appenzell Inner Rhodes,1600,Oberegg,3111,47.4165,9.5533
CH,9442,Büriswilen,Appenzell Innerrhoden,AI,Appenzell Inner Rhodes,1600,Oberegg,3111,47.4331,9.6025
CH,9063,Stein AR,Appenzell Ausserrhoden,AR,Bezirk Hinterland,1501,Stein (AR),3005,47.3761,9.3417
CH,9064,Hundwil,Appenzell Ausserrhoden,AR,Bezirk Hinterland,1501,Hundwil,3002,47.3517,9.319
CH,9100,Herisau,Appenzell Ausserrhoden,AR,Bezirk Hinterland,1501,Herisau,3001,47.3833,9.2813
CH,9102,Herisau,Appenzell Ausserrhoden,AR,Bezirk Hinterland,1501,Herisau,3001,47.3861,9.2792
CH,9103,Schwellbrunn,Appenzell Ausserrhoden,AR,Bezirk Hinterland,1501,Schwellbrunn,3004,47.3516,9.2362
CH,9104,Waldstatt,Appenzell Ausserrhoden,AR,Bezirk Hinterland,1501,Waldstatt,3007,47.3567,9.2854
CH,9105,Schönengrund,Appenzell Ausserrhoden,AR,Bezirk Hinterland,1501,Schönengrund,3003,47.3254,9.2267
CH,9107,Urnäsch,Appenzell Ausserrhoden,AR,Bezirk Hinterland,1501,Urnäsch,3006,47.2948,9.2779
CH,9112,Schachen b. Herisau,Appenzell Ausserrhoden,AR,Bezirk Hinterland,1501,Herisau,3001,47.3797,9.2366
CH,9037,Speicherschwendi,Appenzell Ausserrhoden,AR,Bezirk Mittelland,1502,Speicher,3023,47.428,9.4383
CH,9042,Speicher,Appenzell Ausserrhoden,AR,Bezirk Mittelland,1502,Speicher,3023,47.4099,9.441
CH,9043,Trogen,Appenzell Ausserrhoden,AR,Bezirk Mittelland,1502,Trogen,3025,47.4003,9.4764
CH,9052,Niederteufen,Appenzell Ausserrhoden,AR,Bezirk Mittelland,1502,Teufen (AR),3024,47.3909,9.362
CH,9053,Teufen AR,Appenzell Ausserrhoden,AR,Bezirk Mittelland,1502,Teufen (AR),3024,47.3928,9.4
CH,9055,Bühler,Appenzell Ausserrhoden,AR,Bezirk Mittelland,1502,Bühler,3021,47.3783,9.4266
CH,9056,Gais,Appenzell Ausserrhoden,AR,Bezirk Mittelland,1502,Gais,3022,47.368,9.4714
CH,9062,Lustmühle,Appenzell Ausserrhoden,AR,Bezirk Mittelland,1502,Teufen (AR),3024,47.3988,9.3542
CH,9035,Grub AR,Appenzell Ausserrhoden,AR,Bezirk Vorderland,1503,Grub (AR),3031,47.4412,9.5017
CH,9038,Rehetobel,Appenzell Ausserrhoden,AR,Bezirk Vorderland,1503,Rehetobel,3034,47.4283,9.4843
CH,9044,Wald AR,Appenzell Ausserrhoden,AR,Bezirk Vorderland,1503,Wald (AR),3036,47.4146,9.5044
CH,9405,Wienacht-Tobel,Appenzell Ausserrhoden,AR,Bezirk Vorderland,1503,Lutzenberg,3033,47.465,9.5362
CH,9410,Heiden,Appenzell Ausserrhoden,AR,Bezirk Vorderland,1503,Heiden,3032,47.4408,9.5349
CH,9411,Schachen b. Reute,Appenzell Ausserrhoden,AR,Bezirk Vorderland,1503,Reute (AR),3035,47.4256,9.5608
CH,9411,Reute AR,Appenzell Ausserrhoden,AR,Bezirk Vorderland,1503,Reute (AR),3035,47.4088,9.5662
CH,9426,Lutzenberg,Appenzell Ausserrhoden,AR,Bezirk Vorderland,1503,Lutzenberg,3033,47.4593,9.5748
CH,9427,Wolfhalden,Appenzell Ausserrhoden,AR,Bezirk Vorderland,1503,Wolfhalden,3038,47.4506,9.5612
CH,9428,Walzenhausen,Appenzell Ausserrhoden,AR,Bezirk Vorderland,1503,Walzenhausen,3037,47.4433,9.5971
CH,2333,La Ferrière,Bern,BE,Jura bernois,241,La Ferrière,435,47.1498,6.9105
CH,2345,Le Cerneux-Veusil,Bern,BE,Jura bernois,241,Saint-Imier,443,47.1791,6.967
CH,2515,Prêles,Bern,BE,Jura bernois,241,Plateau de Diesse,726,47.095,7.1153
CH,2516,Lamboing,Bern,BE,Jura bernois,241,Plateau de Diesse,726,47.1256,7.1575
CH,2517,Diesse,Bern,BE,Jura bernois,241,Plateau de Diesse,726,47.1201,7.118
CH,2518,Nods,Bern,BE,Jura bernois,241,Nods,724,47.1209,7.0746
CH,2520,La Neuveville,Bern,BE,Jura bernois,241,La Neuveville,723,47.0741,7.1023
CH,2534,Orvin,Bern,BE,Jura bernois,241,Orvin,438,47.157,7.2125
CH,2534,Les Prés-d'Orvin,Bern,BE,Jura bernois,241,Orvin,438,47.1555,7.1664
CH,2535,Frinvillier,Bern,BE,Jura bernois,241,Sauge,449,47.1695,7.2544
CH,2536,Plagne,Bern,BE,Jura bernois,241,Sauge,449,47.1905,7.2848
CH,2537,Vauffelin,Bern,BE,Jura bernois,241,Sauge,449,47.1841,7.298
CH,2538,Romont BE,Bern,BE,Jura bernois,241,Romont (BE),442,47.1932,7.3318
CH,2603,Péry,Bern,BE,Jura bernois,241,Péry-La Heutte,450,47.1998,7.2694
CH,2604,La Heutte,Bern,BE,Jura bernois,241,Péry-La Heutte,450,47.1887,7.2178
CH,2605,Sonceboz-Sombeval,Bern,BE,Jura bernois,241,Sonceboz-Sombeval,444,47.1884,7.1806
CH,2606,Corgémont,Bern,BE,Jura bernois,241,Corgémont,431,47.1927,7.1413
CH,2607,Cortébert,Bern,BE,Jura bernois,241,Cortébert,433,47.1893,7.1071
CH,2608,Courtelary,Bern,BE,Jura bernois,241,Courtelary,434,47.1857,7.074
CH,2608,Montagne-de-Courtelary,Bern,BE,Jura bernois,241,Cortébert,433,47.1599,7.0959
CH,2610,Les Pontins,Bern,BE,Jura bernois,241,Saint-Imier,443,47.1308,7.0049
CH,2610,Mont-Soleil,Bern,BE,Jura bernois,241,Saint-Imier,443,47.1529,6.9593
CH,2610,Mont-Crosin,Bern,BE,Jura bernois,241,Cormoret,432,47.1862,7.0307
CH,2610,St-Imier,Bern,BE,Jura bernois,241,Saint-Imier,443,47.1559,6.9933
CH,2612,Cormoret,Bern,BE,Jura bernois,241,Cormoret,432,47.1679,7.0484
CH,2613,Villeret,Bern,BE,Jura bernois,241,Villeret,448,47.1491,7.0309
CH,2615,Sonvilier,Bern,BE,Jura bernois,241,Sonvilier,445,47.1336,6.9619
CH,2615,Montagne-de-Sonvilier,Bern,BE,Jura bernois,241,Sonvilier,445,47.1207,6.9579
CH,2616,Renan BE,Bern,BE,Jura bernois,241,Renan (BE),441,47.1072,6.9012
CH,2710,Tavannes,Bern,BE,Jura bernois,241,Tavannes,713,47.2216,7.1893
CH,2712,Le Fuet,Bern,BE,Jura bernois,241,Saicourt,706,47.2485,7.1751
CH,2713,Bellelay,Bern,BE,Jura bernois,241,Saicourt,706,47.264,7.1637
CH,2715,Monible,Bern,BE,Jura bernois,241,Petit-Val,716,47.2797,7.1994
CH,2715,Châtelat,Bern,BE,Jura bernois,241,Petit-Val,716,47.2683,7.1895
CH,2716,Sornetan,Bern,BE,Jura bernois,241,Petit-Val,716,47.2728,7.2179
CH,2717,Rebévelier,Bern,BE,Jura bernois,241,Rebévelier,715,47.2899,7.1861
CH,2717,Fornet-Dessous,Bern,BE,Jura bernois,241,Petit-Val,716,47.2771,7.1761
CH,2720,La Tanne,Bern,BE,Jura bernois,241,Tavannes,713,47.2137,7.1413
CH,2720,Tramelan,Bern,BE,Jura bernois,241,Tramelan,446,47.23,7.1173
CH,2722,Les Reussilles,Bern,BE,Jura bernois,241,Tramelan,446,47.228,7.0711
CH,2723,Mont-Tramelan,Bern,BE,Jura bernois,241,Mont-Tramelan,437,47.2071,7.0657
CH,2732,Reconvilier,Bern,BE,Jura bernois,241,Reconvilier,703,47.2248,7.2242
CH,2732,Saicourt,Bern,BE,Jura bernois,241,Saicourt,706,47.2462,7.2027
CH,2732,Saules BE,Bern,BE,Jura bernois,241,Saules (BE),707,47.2533,7.2221
CH,2732,Loveresse,Bern,BE,Jura bernois,241,Loveresse,696,47.2408,7.2411
CH,2733,Pontenet,Bern,BE,Jura bernois,241,Valbirse,717,47.2498,7.2542
CH,2735,Bévilard,Bern,BE,Jura bernois,241,Valbirse,717,47.2312,7.2855
CH,2735,Malleray,Bern,BE,Jura bernois,241,Valbirse,717,47.2377,7.2661
CH,2735,Champoz,Bern,BE,Jura bernois,241,Champoz,683,47.2598,7.3107
CH,2735,Malleray-Bévilard,Bern,BE,Jura bernois,241,Valbirse,717,47.2391,7.2714
CH,2736,Sorvilier,Bern,BE,Jura bernois,241,Sorvilier,711,47.2315,7.3076
CH,2738,Court,Bern,BE,Jura bernois,241,Court,690,47.239,7.3609
CH,2740,Moutier,Bern,BE,Jura bernois,241,Moutier,700,47.2778,7.3602
CH,2742,Perrefitte,Bern,BE,Jura bernois,241,Perrefitte,701,47.2774,7.3182
CH,2743,Eschert,Bern,BE,Jura bernois,241,Eschert,692,47.2655,7.4076
CH,2744,Belprahon,Bern,BE,Jura bernois,241,Belprahon,681,47.2905,7.4041
CH,2745,Grandval,Bern,BE,Jura bernois,241,Grandval,694,47.2836,7.428
CH,2746,Crémines,Bern,BE,Jura bernois,241,Crémines,691,47.285,7.4514
CH,2747,Corcelles BE,Bern,BE,Jura bernois,241,Corcelles (BE),687,47.2916,7.4714
CH,2747,Seehof,Bern,BE,Jura bernois,241,Seehof,709,47.3048,7.5253
CH,2748,Souboz,Bern,BE,Jura bernois,241,Petit-Val,716,47.2722,7.2558
CH,2748,Les Ecorcheresses,Bern,BE,Jura bernois,241,Petit-Val,716,47.2836,7.2637
CH,2762,Roches BE,Bern,BE,Jura bernois,241,Roches (BE),704,47.3039,7.3818
CH,2827,Schelten,Bern,BE,Jura bernois,241,Schelten,708,47.3327,7.5531
CH,2500,Biel/Bienne,Bern,BE,Biel/Bienne District,242,Biel/Bienne,371,47.1371,7.2461
CH,2500,Biel/Bienne 4,Bern,BE,Biel/Bienne District,242,Biel/Bienne,371,47.1492,7.2611
CH,2500,Biel/Bienne 6,Bern,BE,Biel/Bienne District,242,Biel/Bienne,371,47.1492,7.2611
CH,2501,Biel/Bienne,Bern,BE,Biel/Bienne District,242,Biel/Bienne,371,47.1371,7.2461
CH,2502,Biel/Bienne,Bern,BE,Biel/Bienne District,242,Biel/Bienne,371,47.1489,7.2473
CH,2503,Biel/Bienne,Bern,BE,Biel/Bienne District,242,Biel/Bienne,371,47.1324,7.2551
CH,2504,Biel/Bienne,Bern,BE,Biel/Bienne District,242,Biel/Bienne,371,47.1574,7.2809
CH,2505,Biel/Bienne,Bern,BE,Biel/Bienne District,242,Biel/Bienne,371,47.1338,7.2171
CH,2512,Tüscherz-Alfermée,Bern,BE,Biel/Bienne District,242,Twann-Tüscherz,756,47.1217,7.1964
CH,2513,Twann,Bern,BE,Biel/Bienne District,242,Twann-Tüscherz,756,47.1053,7.1637
CH,2514,Ligerz,Bern,BE,Biel/Bienne District,242,Ligerz,740,47.0905,7.1388
CH,2532,Magglingen/Macolin,Bern,BE,Biel/Bienne District,242,Evilard,372,47.142,7.2115
CH,2532,Macolin,Bern,BE,Biel/Bienne District,242,Evilard,372,47.139,7.2141
CH,2533,Evilard,Bern,BE,Biel/Bienne District,242,Evilard,372,47.1509,7.2359
CH,2542,Pieterlen,Bern,BE,Biel/Bienne District,242,Pieterlen,392,47.1739,7.328
CH,2543,Lengnau BE,Bern,BE,Biel/Bienne District,242,Lengnau (BE),387,47.182,7.3659
CH,2552,Orpund,Bern,BE,Biel/Bienne District,242,Orpund,744,47.1417,7.3031
CH,2553,Safnern,Bern,BE,Biel/Bienne District,242,Safnern,746,47.1523,7.322
CH,2554,Meinisberg,Bern,BE,Biel/Bienne District,242,Meinisberg,390,47.1614,7.3527
CH,2555,Brügg BE,Bern,BE,Biel/Bienne District,242,Brügg,733,47.128,7.2781
CH,2556,Schwadernau,Bern,BE,Biel/Bienne District,242,Schwadernau,748,47.1239,7.3173
CH,2556,Scheuren,Bern,BE,Biel/Bienne District,242,Scheuren,747,47.1323,7.3269
CH,2558,Aegerten,Bern,BE,Biel/Bienne District,242,Aegerten,731,47.1172,7.2851
CH,2560,Nidau,Bern,BE,Biel/Bienne District,242,Nidau,743,47.1244,7.2409
CH,2562,Port,Bern,BE,Biel/Bienne District,242,Port,745,47.1135,7.2591
CH,2563,Ipsach,Bern,BE,Biel/Bienne District,242,Ipsach,739,47.1149,7.2314
CH,2564,Bellmund,Bern,BE,Biel/Bienne District,242,Bellmund,732,47.1024,7.2436
CH,2572,Mörigen,Bern,BE,Biel/Bienne District,242,Mörigen,742,47.0843,7.2116
CH,2572,Sutz,Bern,BE,Biel/Bienne District,242,Sutz-Lattrigen,750,47.0992,7.2188
CH,2557,Studen BE,Bern,BE,Seeland District,243,Studen (BE),749,47.1126,7.3029
CH,2565,Jens,Bern,BE,Seeland District,243,Jens,738,47.0981,7.2691
CH,2575,Gerolfingen,Bern,BE,Seeland District,243,Täuffelen,751,47.0759,7.2001
CH,2575,Hagneck,Bern,BE,Seeland District,243,Hagneck,736,47.0532,7.1872
CH,2575,Täuffelen,Bern,BE,Seeland District,243,Täuffelen,751,47.0621,7.1957
CH,2576,Lüscherz,Bern,BE,Seeland District,243,Lüscherz,497,47.0441,7.1615
CH,2577,Finsterhennen,Bern,BE,Seeland District,243,Finsterhennen,493,47.0206,7.1792
CH,2577,Siselen BE,Bern,BE,Seeland District,243,Siselen,499,47.0325,7.196
CH,3035,Frieswil,Bern,BE,Seeland District,243,Seedorf (BE),312,46.9924,7.2934
CH,3036,Detligen,Bern,BE,Seeland District,243,Radelfingen,309,46.994,7.268
CH,3053,Lätti,Bern,BE,Seeland District,243,Rapperswil (BE),310,47.038,7.4314
CH,3054,Schüpfen,Bern,BE,Seeland District,243,Schüpfen,311,47.0358,7.3733
CH,3225,Müntschemier,Bern,BE,Seeland District,243,Müntschemier,498,46.9949,7.1464
CH,3226,Treiten,Bern,BE,Seeland District,243,Treiten,500,47.0062,7.1656
CH,3232,Ins,Bern,BE,Seeland District,243,Ins,496,47.0025,7.1093
CH,3233,Tschugg,Bern,BE,Seeland District,243,Tschugg,501,47.0239,7.0779
CH,3234,Vinelz,Bern,BE,Seeland District,243,Vinelz,502,47.0326,7.1188
CH,3235,Erlach,Bern,BE,Seeland District,243,Erlach,492,47.0468,7.104
CH,3236,Gampelen,Bern,BE,Seeland District,243,Gampelen,495,46.9964,7.0593
CH,3237,Brüttelen,Bern,BE,Seeland District,243,Brüttelen,491,47.024,7.1512
CH,3238,Gals,Bern,BE,Seeland District,243,Gals,494,47.0339,7.0563
CH,3250,Lyss,Bern,BE,Seeland District,243,Lyss,306,47.0763,7.3152
CH,3251,Ruppoldsried,Bern,BE,Seeland District,243,Rapperswil (BE),310,47.0904,7.4271
CH,3251,Wengi b. Büren,Bern,BE,Seeland District,243,Wengi,394,47.0861,7.3954
CH,3252,Worben,Bern,BE,Seeland District,243,Worben,755,47.0991,7.2968
CH,3255,Rapperswil BE,Bern,BE,Seeland District,243,Rapperswil (BE),310,47.0662,7.4111
CH,3256,Dieterswil,Bern,BE,Seeland District,243,Rapperswil (BE),310,47.0503,7.4305
CH,3256,Seewil,Bern,BE,Seeland District,243,Rapperswil (BE),310,47.0463,7.4108
CH,3256,Bangerten b. Dieterswil,Bern,BE,Seeland District,243,Rapperswil (BE),310,47.0563,7.447
CH,3257,Ammerzwil BE,Bern,BE,Seeland District,243,Grossaffoltern,303,47.0736,7.3425
CH,3257,Grossaffoltern,Bern,BE,Seeland District,243,Grossaffoltern,303,47.0711,7.3652
CH,3262,Suberg,Bern,BE,Seeland District,243,Grossaffoltern,303,47.0559,7.3389
CH,3263,Büetigen,Bern,BE,Seeland District,243,Büetigen,382,47.106,7.338
CH,3264,Diessbach b. Büren,Bern,BE,Seeland District,243,Diessbach bei Büren,385,47.1044,7.3639
CH,3266,Wiler b. Seedorf,Bern,BE,Seeland District,243,Seedorf (BE),312,47.0494,7.3209
CH,3267,Seedorf BE,Bern,BE,Seeland District,243,Seedorf (BE),312,47.0265,7.3231
CH,3268,Lobsigen,Bern,BE,Seeland District,243,Seedorf (BE),312,47.0187,7.2998
CH,3270,Aarberg,Bern,BE,Seeland District,243,Aarberg,301,47.0461,7.2829
CH,3271,Radelfingen b. Aarberg,Bern,BE,Seeland District,243,Radelfingen,309,47.0186,7.2729
CH,3272,Epsach,Bern,BE,Seeland District,243,Epsach,735,47.0704,7.2201
CH,3272,Walperswil,Bern,BE,Seeland District,243,Walperswil,754,47.0522,7.2238
CH,3273,Kappelen,Bern,BE,Seeland District,243,Kappelen,305,47.0713,7.2744
CH,3274,Hermrigen,Bern,BE,Seeland District,243,Hermrigen,737,47.0814,7.2408
CH,3274,Merzligen,Bern,BE,Seeland District,243,Merzligen,741,47.0873,7.2537
CH,3274,Bühl b. Aarberg,Bern,BE,Seeland District,243,Bühl,734,47.067,7.2465
CH,3282,Bargen BE,Bern,BE,Seeland District,243,Bargen (BE),302,47.0362,7.2449
CH,3283,Niederried b. Kallnach,Bern,BE,Seeland District,243,Kallnach,304,47.0063,7.2314
CH,3283,Kallnach,Bern,BE,Seeland District,243,Kallnach,304,47.0166,7.2168
CH,3292,Busswil BE,Bern,BE,Seeland District,243,Lyss,306,47.0995,7.3211
CH,3293,Dotzigen,Bern,BE,Seeland District,243,Dotzigen,386,47.1242,7.3479
CH,3294,Meienried,Bern,BE,Seeland District,243,Meienried,389,47.1372,7.3417
CH,3294,Büren an der Aare,Bern,BE,Seeland District,243,Büren an der Aare,383,47.1417,7.3701
CH,3295,Rüti b. Büren,Bern,BE,Seeland District,243,Rüti bei Büren,393,47.1513,7.4113
CH,3296,Arch,Bern,BE,Seeland District,243,Arch,381,47.1656,7.4342
CH,3297,Leuzigen,Bern,BE,Seeland District,243,Leuzigen,388,47.1709,7.4666
CH,3298,Oberwil b. Büren,Bern,BE,Seeland District,243,Oberwil bei Büren,391,47.1307,7.4114
CH,3360,Herzogenbuchsee,Bern,BE,Oberaargau,244,Herzogenbuchsee,979,47.1946,7.7138
CH,3362,Niederönz,Bern,BE,Oberaargau,244,Niederönz,982,47.1861,7.684
CH,3363,Oberönz,Bern,BE,Oberaargau,244,Herzogenbuchsee,979,47.1739,7.6887
CH,3365,Grasswil,Bern,BE,Oberaargau,244,Seeberg,988,47.1408,7.669
CH,3365,Seeberg,Bern,BE,Oberaargau,244,Seeberg,988,47.159,7.6643
CH,3366,Bollodingen,Bern,BE,Oberaargau,244,Bettenhausen,973,47.1659,7.7047
CH,3366,Bettenhausen,Bern,BE,Oberaargau,244,Bettenhausen,973,47.1743,7.7128
CH,3367,Ochlenberg,Bern,BE,Oberaargau,244,Ochlenberg,985,47.1535,7.7421
CH,3367,Thörigen,Bern,BE,Oberaargau,244,Thörigen,989,47.173,7.7307
CH,3368,Bleienbach,Bern,BE,Oberaargau,244,Bleienbach,324,47.1822,7.7569
CH,3372,Wanzwil,Bern,BE,Oberaargau,244,Heimenhausen,977,47.199,7.6916
CH,3373,Heimenhausen,Bern,BE,Oberaargau,244,Heimenhausen,977,47.2137,7.6969
CH,3373,Röthenbach Herzogenbuchsee,Bern,BE,Oberaargau,244,Heimenhausen,977,47.2067,7.6833
CH,3374,Wangenried,Bern,BE,Oberaargau,244,Wangenried,993,47.2177,7.659
CH,3375,Inkwil,Bern,BE,Oberaargau,244,Inkwil,980,47.2035,7.6665
CH,3376,Graben,Bern,BE,Oberaargau,244,Graben,976,47.2183,7.7205
CH,3376,Berken,Bern,BE,Oberaargau,244,Berken,972,47.2256,7.7055
CH,3377,Walliswil b. Wangen,Bern,BE,Oberaargau,244,Walliswil bei Wangen,991,47.2271,7.6835
CH,3380,Walliswil b. Niederbipp,Bern,BE,Oberaargau,244,Walliswil bei Niederbipp,990,47.2362,7.6953
CH,3380,Wangen an der Aare,Bern,BE,Oberaargau,244,Wangen an der Aare,992,47.2315,7.6515
CH,3464,Schmidigen-Mühleweg,Bern,BE,Oberaargau,244,Walterswil (BE),959,47.0939,7.7377
CH,3475,Hermiswil,Bern,BE,Oberaargau,244,Seeberg,988,47.1558,7.6998
CH,3475,Riedtwil,Bern,BE,Oberaargau,244,Seeberg,988,47.1411,7.6927
CH,3476,Oschwand,Bern,BE,Oberaargau,244,Ochlenberg,985,47.137,7.7217
CH,4536,Attiswil,Bern,BE,Oberaargau,244,Attiswil,971,47.2527,7.611
CH,4537,Wiedlisbach,Bern,BE,Oberaargau,244,Wiedlisbach,995,47.2459,7.6517
CH,4538,Oberbipp,Bern,BE,Oberaargau,244,Oberbipp,983,47.254,7.6776
CH,4539,Rumisberg,Bern,BE,Oberaargau,244,Rumisberg,987,47.2716,7.6346
CH,4539,Farnern,Bern,BE,Oberaargau,244,Farnern,975,47.2705,7.6104
CH,4704,Niederbipp,Bern,BE,Oberaargau,244,Niederbipp,981,47.2662,7.7037
CH,4704,Wolfisberg,Bern,BE,Oberaargau,244,Niederbipp,981,47.2771,7.6586
CH,4900,Langenthal,Bern,BE,Oberaargau,244,Langenthal,329,47.2158,7.7946
CH,4901,Langenthal,Bern,BE,Oberaargau,244,Langenthal,329,47.2153,7.7961
CH,4911,Schwarzhäusern,Bern,BE,Oberaargau,244,Schwarzhäusern,341,47.2557,7.7669
CH,4912,Aarwangen,Bern,BE,Oberaargau,244,Aarwangen,321,47.2357,7.7643
CH,4913,Bannwil,Bern,BE,Oberaargau,244,Bannwil,323,47.2385,7.7303
CH,4914,Roggwil BE,Bern,BE,Oberaargau,244,Roggwil (BE),337,47.2366,7.8185
CH,4916,Untersteckholz,Bern,BE,Oberaargau,244,Langenthal,329,47.2069,7.844
CH,4917,Busswil b. Melchnau,Bern,BE,Oberaargau,244,Busswil bei Melchnau,325,47.1876,7.8295
CH,4917,Melchnau,Bern,BE,Oberaargau,244,Melchnau,333,47.1771,7.856
CH,4919,Reisiswil,Bern,BE,Oberaargau,244,Reisiswil,336,47.1613,7.8424
CH,4922,Bützberg,Bern,BE,Oberaargau,244,Thunstetten,342,47.215,7.7442
CH,4922,Thunstetten,Bern,BE,Oberaargau,244,Thunstetten,342,47.1991,7.7478
CH,4923,Wynau,Bern,BE,Oberaargau,244,Wynau,345,47.256,7.8048
CH,4924,Obersteckholz,Bern,BE,Oberaargau,244,Langenthal,329,47.2019,7.8254
CH,4932,Gutenburg,Bern,BE,Oberaargau,244,Madiswil,332,47.1822,7.7998
CH,4932,Lotzwil,Bern,BE,Oberaargau,244,Lotzwil,331,47.1902,7.7922
CH,4933,Rütschelen,Bern,BE,Oberaargau,244,Rütschelen,340,47.1712,7.7709
CH,4934,Madiswil,Bern,BE,Oberaargau,244,Madiswil,332,47.1618,7.8111
CH,4935,Leimiswil,Bern,BE,Oberaargau,244,Madiswil,332,47.1489,7.7657
CH,4936,Kleindietwil,Bern,BE,Oberaargau,244,Madiswil,332,47.1423,7.791
CH,4937,Ursenbach,Bern,BE,Oberaargau,244,Ursenbach,344,47.13,7.7644
CH,4938,Rohrbach,Bern,BE,Oberaargau,244,Rohrbach,338,47.1331,7.811
CH,4938,Rohrbachgraben,Bern,BE,Oberaargau,244,Rohrbachgraben,339,47.113,7.803
CH,4942,Walterswil BE,Bern,BE,Oberaargau,244,Walterswil (BE),959,47.1064,7.7747
CH,4943,Oeschenbach,Bern,BE,Oberaargau,244,Oeschenbach,335,47.1105,7.7463
CH,4944,Auswil,Bern,BE,Oberaargau,244,Auswil,322,47.1358,7.8383
CH,4950,Huttwil,Bern,BE,Oberaargau,244,Huttwil,954,47.1098,7.8546
CH,4952,Eriswil,Bern,BE,Oberaargau,244,Eriswil,953,47.0707,7.8587
CH,4953,Schwarzenbach (Huttwil),Bern,BE,Oberaargau,244,Huttwil,954,47.1023,7.826
CH,4954,Wyssachen,Bern,BE,Oberaargau,244,Wyssachen,960,47.0732,7.8216
CH,4955,Gondiswil,Bern,BE,Oberaargau,244,Gondiswil,326,47.1434,7.8683
CH,3309,Kernenried,Bern,BE,Emmental District,245,Kernenried,411,47.0663,7.5498
CH,3315,Kräiligen,Bern,BE,Emmental District,245,Bätterkinden,533,47.1506,7.5358
CH,3315,Bätterkinden,Bern,BE,Emmental District,245,Bätterkinden,533,47.1283,7.5262
CH,3324,Hindelbank,Bern,BE,Emmental District,245,Hindelbank,409,47.0418,7.5432
CH,3324,Mötschwil,Bern,BE,Emmental District,245,Hindelbank,409,47.0459,7.569
CH,3325,Hettiswil b. Hindelbank,Bern,BE,Emmental District,245,Krauchthal,414,47.0267,7.5569
CH,3326,Krauchthal,Bern,BE,Emmental District,245,Krauchthal,414,47.0041,7.5641
CH,3400,Burgdorf,Bern,BE,Emmental District,245,Burgdorf,404,47.0561,7.6184
CH,3401,Burgdorf,Bern,BE,Emmental District,245,Burgdorf,404,47.059,7.6279
CH,3412,Heimiswil,Bern,BE,Emmental District,245,Heimiswil,407,47.0515,7.6611
CH,3413,Kaltacker,Bern,BE,Emmental District,245,Heimiswil,407,47.0751,7.6744
CH,3414,Oberburg,Bern,BE,Emmental District,245,Oberburg,418,47.0202,7.6085
CH,3415,Rüegsauschachen,Bern,BE,Emmental District,245,Rüegsau,956,47.0225,7.6568
CH,3415,Hasle-Rüegsau,Bern,BE,Emmental District,245,Hasle bei Burgdorf,406,46.9983,7.6431
CH,3415,Schafhausen im Emmental,Bern,BE,Emmental District,245,Hasle bei Burgdorf,406,46.9912,7.6463
CH,3415,Hasle b. Burgdorf,Bern,BE,Emmental District,245,Hasle bei Burgdorf,406,47.0124,7.6442
CH,3416,Affoltern im Emmental,Bern,BE,Emmental District,245,Affoltern im Emmental,951,47.0688,7.7255
CH,3417,Rüegsau,Bern,BE,Emmental District,245,Rüegsau,956,47.0275,7.6773
CH,3418,Rüegsbach,Bern,BE,Emmental District,245,Rüegsau,956,47.0468,7.6991
CH,3419,Biembach im Emmental,Bern,BE,Emmental District,245,Hasle bei Burgdorf,406,46.9938,7.6161
CH,3421,Rüti b. Lyssach,Bern,BE,Emmental District,245,Rüti bei Lyssach,422,47.055,7.5822
CH,3421,Lyssach,Bern,BE,Emmental District,245,Oberburg,418,47.0633,7.5812
CH,3421,Lyssach,Bern,BE,Emmental District,245,Lyssach,415,47.0633,7.5812
CH,3422,Kirchberg BE,Bern,BE,Emmental District,245,Kirchberg (BE),412,47.0846,7.6015
CH,3422,Rüdtligen,Bern,BE,Emmental District,245,Rüdtligen-Alchenflüh,420,47.0855,7.5661
CH,3422,Alchenflüh,Bern,BE,Emmental District,245,Rüdtligen-Alchenflüh,420,47.0824,7.5774
CH,3423,Ersigen,Bern,BE,Emmental District,245,Ersigen,405,47.0976,7.6043
CH,3424,Oberösch,Bern,BE,Emmental District,245,Ersigen,405,47.1071,7.6106
CH,3424,Niederösch,Bern,BE,Emmental District,245,Ersigen,405,47.116,7.6153
CH,3425,Koppigen,Bern,BE,Emmental District,245,Koppigen,413,47.1359,7.6027
CH,3425,Willadingen,Bern,BE,Emmental District,245,Willadingen,423,47.147,7.6149
CH,3426,Aefligen,Bern,BE,Emmental District,245,Aefligen,401,47.0966,7.5495
CH,3427,Utzenstorf,Bern,BE,Emmental District,245,Utzenstorf,552,47.124,7.5635
CH,3428,Wiler b. Utzenstorf,Bern,BE,Emmental District,245,Wiler bei Utzenstorf,554,47.1529,7.5582
CH,3429,Hellsau,Bern,BE,Emmental District,245,Hellsau,408,47.1437,7.6483
CH,3429,Höchstetten,Bern,BE,Emmental District,245,Höchstetten,410,47.1437,7.6334
CH,3432,Lützelflüh-Goldbach,Bern,BE,Emmental District,245,Lützelflüh,955,47.001,7.6821
CH,3433,Schwanden im Emmental,Bern,BE,Emmental District,245,Rüderswil,905,46.9779,7.695
CH,3435,Ramsei,Bern,BE,Emmental District,245,Lützelflüh,955,46.9994,7.7121
CH,3436,Zollbrück,Bern,BE,Emmental District,245,Rüderswil,905,46.9751,7.7663
CH,3437,Rüderswil,Bern,BE,Emmental District,245,Rüderswil,905,46.9827,7.7167
CH,3438,Lauperswil,Bern,BE,Emmental District,245,Lauperswil,903,46.9603,7.7268
CH,3439,Ranflüh,Bern,BE,Emmental District,245,Lützelflüh,955,46.9901,7.7472
CH,3452,Grünenmatt,Bern,BE,Emmental District,245,Lützelflüh,955,47.0149,7.7247
CH,3453,Heimisbach,Bern,BE,Emmental District,245,Trachselwald,958,47.0091,7.7838
CH,3454,Sumiswald,Bern,BE,Emmental District,245,Sumiswald,957,47.0376,7.7502
CH,3455,Grünen,Bern,BE,Emmental District,245,Sumiswald,957,47.0222,7.7391
CH,3456,Trachselwald,Bern,BE,Emmental District,245,Trachselwald,958,47.0154,7.7448
CH,3457,Wasen im Emmental,Bern,BE,Emmental District,245,Sumiswald,957,47.029,7.8386
CH,3462,Weier im Emmental,Bern,BE,Emmental District,245,Affoltern im Emmental,951,47.0601,7.7616
CH,3463,Häusernmoos im Emmental,Bern,BE,Emmental District,245,Affoltern im Emmental,951,47.0806,7.7527
CH,3465,Dürrenroth,Bern,BE,Emmental District,245,Dürrenroth,952,47.0796,7.7867
CH,3472,Rumendingen,Bern,BE,Emmental District,245,Rumendingen,421,47.1054,7.6432
CH,3472,Wynigen,Bern,BE,Emmental District,245,Wynigen,424,47.0991,7.6819
CH,3473,Alchenstorf,Bern,BE,Emmental District,245,Alchenstorf,402,47.1245,7.6437
CH,3474,Rüedisbach,Bern,BE,Emmental District,245,Wynigen,424,47.1184,7.7028
CH,3534,Signau,Bern,BE,Emmental District,245,Signau,907,46.9089,7.7339
CH,3535,Schüpbach,Bern,BE,Emmental District,245,Signau,907,46.9292,7.7483
CH,3536,Aeschau,Bern,BE,Emmental District,245,Eggiwil,901,46.9041,7.7853
CH,3537,Eggiwil,Bern,BE,Emmental District,245,Eggiwil,901,46.8613,7.812
CH,3538,Röthenbach im Emmental,Bern,BE,Emmental District,245,Röthenbach im Emmental,904,46.8574,7.7413
CH,3543,Emmenmatt,Bern,BE,Emmental District,245,Lauperswil,903,46.9444,7.7269
CH,3550,Langnau im Emmental,Bern,BE,Emmental District,245,Langnau im Emmental,902,46.9333,7.7854
CH,3551,Oberfrittenbach,Bern,BE,Emmental District,245,Langnau im Emmental,902,46.9744,7.7959
CH,3552,Bärau,Bern,BE,Emmental District,245,Langnau im Emmental,902,46.94,7.8265
CH,3553,Gohl,Bern,BE,Emmental District,245,Langnau im Emmental,902,46.9762,7.826
CH,3555,Trubschachen,Bern,BE,Emmental District,245,Trubschachen,909,46.9101,7.8523
CH,3556,Trub,Bern,BE,Emmental District,245,Trub,908,46.9648,7.8769
CH,3557,Fankhaus (Trub),Bern,BE,Emmental District,245,Trub,908,46.9824,7.9244
CH,3618,Süderen,Bern,BE,Emmental District,245,Röthenbach im Emmental,904,46.8198,7.7713
CH,4564,Zielebach,Bern,BE,Emmental District,245,Zielebach,556,47.158,7.573
CH,6197,Schangnau,Bern,BE,Emmental District,245,Schangnau,906,46.8106,7.8871
CH,1595,Clavaleyres,Bern,BE,Bern-Mittelland District,246,Murten,2275,46.8976,7.0917
CH,1738,Sangernboden,Bern,BE,Bern-Mittelland District,246,Guggisberg,852,46.6993,7.371
CH,1797,Münchenwiler,Bern,BE,Bern-Mittelland District,246,Münchenwiler,669,46.9111,7.1255
CH,3000,Bern 31,Bern,BE,Bern-Mittelland District,246,Bern,351,46.9476,7.4065
CH,3000,Bern 8,Bern,BE,Bern-Mittelland District,246,Bern,351,46.9476,7.4065
CH,3000,Bern 6,Bern,BE,Bern-Mittelland District,246,Bern,351,46.9476,7.4065
CH,3000,Bern 13,Bern,BE,Bern-Mittelland District,246,Bern,351,46.9476,7.4065
CH,3000,Bern 94,Bern,BE,Bern-Mittelland District,246,Bern,351,46.9476,7.4065
CH,3000,Bern 65,Bern,BE,Bern-Mittelland District,246,Bern,351,46.9476,7.4065
CH,3000,Bern 14,Bern,BE,Bern-Mittelland District,246,Bern,351,46.9476,7.4065
CH,3000,Bern 5,Bern,BE,Bern-Mittelland District,246,Bern,351,46.9476,7.4065
CH,3000,Bern 60 UPD,Bern,BE,Bern-Mittelland District,246,Bern,351,46.9476,7.4065
CH,3000,Bern 16,Bern,BE,Bern-Mittelland District,246,Bern,351,46.9476,7.4065
CH,3000,Bern 9,Bern,BE,Bern-Mittelland District,246,Bern,351,46.9476,7.4065
CH,3000,Bern 65 SBB,Bern,BE,Bern-Mittelland District,246,Bern,351,46.9476,7.4065
CH,3000,Bern 15,Bern,BE,Bern-Mittelland District,246,Bern,351,46.9476,7.4065
CH,3000,Bern 22,Bern,BE,Bern-Mittelland District,246,Bern,351,46.9476,7.4065
CH,3000,Bern,Bern,BE,Bern-Mittelland District,246,Bern,351,46.9481,7.4474
CH,3001,Bern,Bern,BE,Bern-Mittelland District,246,Bern,351,46.9481,7.4474
CH,3002,Bern PostFinance,Bern,BE,Bern-Mittelland District,246,Bern,351,46.9476,7.4065
CH,3003,Bern,Bern,BE,Bern-Mittelland District,246,Bern,351,46.9481,7.4474
CH,3004,Bern,Bern,BE,Bern-Mittelland District,246,Bern,351,46.9753,7.45
CH,3005,Bern,Bern,BE,Bern-Mittelland District,246,Bern,351,46.9398,7.4502
CH,3006,Bern,Bern,BE,Bern-Mittelland District,246,Bern,351,46.9462,7.4707
CH,3007,Bern,Bern,BE,Bern-Mittelland District,246,Bern,351,46.9385,7.4339
CH,3008,Bern,Bern,BE,Bern-Mittelland District,246,Bern,351,46.944,7.4156
CH,3010,Bern,Bern,BE,Bern-Mittelland District,246,Bern,351,46.947,7.4237
CH,3011,Bern,Bern,BE,Bern-Mittelland District,246,Bern,351,46.9477,7.4458
CH,3011,Bern,Bern,BE,Bern-Mittelland District,246,Bern,351,46.9477,7.4458
CH,3012,Bern,Bern,BE,Bern-Mittelland District,246,Bern,351,46.9608,7.4262
CH,3013,Bern,Bern,BE,Bern-Mittelland District,246,Bern,351,46.9547,7.4507
CH,3014,Bern,Bern,BE,Bern-Mittelland District,246,Bern,351,46.9635,7.4591
CH,3015,Bern,Bern,BE,Bern-Mittelland District,246,Bern,351,46.9397,7.4841
CH,3018,Bern,Bern,BE,Bern-Mittelland District,246,Bern,351,46.9364,7.3906
CH,3019,Bern,Bern,BE,Bern-Mittelland District,246,Bern,351,46.932,7.348
CH,3020,Bern,Bern,BE,Bern-Mittelland District,246,Bern,351,46.9369,7.3243
CH,3024,Bern,Bern,BE,Bern-Mittelland District,246,Bern,351,46.9481,7.4474
CH,3027,Bern,Bern,BE,Bern-Mittelland District,246,Bern,351,46.9528,7.3844
CH,3029,Bern,Bern,BE,Bern-Mittelland District,246,Bern,351,46.9481,7.4474
CH,3030,Bern,Bern,BE,Bern-Mittelland District,246,Bern,351,46.9481,7.4474
CH,3032,Hinterkappelen,Bern,BE,Bern-Mittelland District,246,Wohlen bei Bern,360,46.9673,7.3816
CH,3033,Wohlen b. Bern,Bern,BE,Bern-Mittelland District,246,Wohlen bei Bern,360,46.974,7.3512
CH,3034,Murzelen,Bern,BE,Bern-Mittelland District,246,Wohlen bei Bern,360,46.9765,7.3104
CH,3037,Herrenschwanden,Bern,BE,Bern-Mittelland District,246,Kirchlindach,354,46.9761,7.4179
CH,3038,Kirchlindach,Bern,BE,Bern-Mittelland District,246,Kirchlindach,354,47.0016,7.4155
CH,3039,Bern PF OC,Bern,BE,Bern-Mittelland District,246,Bern,351,46.9476,7.4065
CH,3039,Bern PF Operations Center,Bern,BE,Bern-Mittelland District,246,Bern,351,46.9476,7.4065
CH,3040,Bern Verarb.zentr.,Bern,BE,Bern-Mittelland District,246,Bern,351,46.9476,7.4065
CH,3040,Bern Verarbeitungszentrum,Bern,BE,Bern-Mittelland District,246,Bern,351,46.9476,7.4065
CH,3041,Bern UBS,Bern,BE,Bern-Mittelland District,246,Bern,351,46.9476,7.4065
CH,3042,Ortschwaben,Bern,BE,Bern-Mittelland District,246,Meikirch,307,46.9923,7.3992
CH,3043,Uettligen,Bern,BE,Bern-Mittelland District,246,Wohlen bei Bern,360,46.9864,7.3809
CH,3044,Innerberg,Bern,BE,Bern-Mittelland District,246,Wohlen bei Bern,360,46.9959,7.3122
CH,3045,Meikirch,Bern,BE,Bern-Mittelland District,246,Meikirch,307,47.0093,7.3723
CH,3046,Wahlendorf,Bern,BE,Bern-Mittelland District,246,Meikirch,307,47.0081,7.3342
CH,3047,Bremgarten b. Bern,Bern,BE,Bern-Mittelland District,246,Bremgarten bei Bern,353,46.9781,7.4355
CH,3048,Worblaufen,Bern,BE,Bern-Mittelland District,246,Ittigen,362,46.9796,7.4643
CH,3049,Säriswil,Bern,BE,Bern-Mittelland District,246,Wohlen bei Bern,360,46.9935,7.3363
CH,3050,Bern Swisscom,Bern,BE,Bern-Mittelland District,246,Bern,351,46.9476,7.4065
CH,3052,Zollikofen,Bern,BE,Bern-Mittelland District,246,Zollikofen,361,46.9959,7.4548
CH,3053,Wiggiswil,Bern,BE,Bern-Mittelland District,246,Wiggiswil,553,47.0313,7.4711
CH,3053,Diemerswil,Bern,BE,Bern-Mittelland District,246,Diemerswil,536,47.0201,7.4205
CH,3053,Deisswil b. Münchenbuchsee,Bern,BE,Bern-Mittelland District,246,Deisswil bei Münchenbuchsee,535,47.0372,7.4533
CH,3053,Münchenbuchsee,Bern,BE,Bern-Mittelland District,246,Münchenbuchsee,546,47.0208,7.445
CH,3063,Ittigen,Bern,BE,Bern-Mittelland District,246,Ittigen,362,46.9803,7.4782
CH,3065,Bolligen,Bern,BE,Bern-Mittelland District,246,Bolligen,352,46.9858,7.5077
CH,3066,Stettlen,Bern,BE,Bern-Mittelland District,246,Stettlen,358,46.9634,7.5286
CH,3067,Boll,Bern,BE,Bern-Mittelland District,246,Vechigen,359,46.9613,7.5519
CH,3068,Utzigen,Bern,BE,Bern-Mittelland District,246,Vechigen,359,46.9667,7.5823
CH,3071,Ostermundigen KATA,Bern,BE,Bern-Mittelland District,246,Ostermundigen,363,46.9559,7.4956
CH,3072,Ostermundigen 1,Bern,BE,Bern-Mittelland District,246,Ostermundigen,363,46.9559,7.4956
CH,3072,Ostermundigen,Bern,BE,Bern-Mittelland District,246,Ostermundigen,363,46.9564,7.4939
CH,3073,Gümligen,Bern,BE,Bern-Mittelland District,246,Muri bei Bern,356,46.9356,7.5081
CH,3074,Muri b. Bern,Bern,BE,Bern-Mittelland District,246,Muri bei Bern,356,46.928,7.4885
CH,3075,Vielbringen b. Worb,Bern,BE,Bern-Mittelland District,246,Worb,627,46.9169,7.543
CH,3075,Rüfenacht BE,Bern,BE,Bern-Mittelland District,246,Worb,627,46.928,7.5368
CH,3076,Worb,Bern,BE,Bern-Mittelland District,246,Worb,627,46.9336,7.5618
CH,3077,Enggistein,Bern,BE,Bern-Mittelland District,246,Worb,627,46.9296,7.6004
CH,3078,Richigen,Bern,BE,Bern-Mittelland District,246,Worb,627,46.9171,7.585
CH,3082,Schlosswil,Bern,BE,Bern-Mittelland District,246,Grosshöchstetten,608,46.9113,7.6112
CH,3083,Trimstein,Bern,BE,Bern-Mittelland District,246,Münsingen,616,46.9029,7.5769
CH,3084,Wabern,Bern,BE,Bern-Mittelland District,246,Köniz,355,46.923,7.453
CH,3085,Wabern Weihnachten,Bern,BE,Bern-Mittelland District,246,Köniz,355,46.9043,7.3978
CH,3085,Wabern 2 x Weihnachten,Bern,BE,Bern-Mittelland District,246,Köniz,355,46.9043,7.3978
CH,3086,Zimmerwald,Bern,BE,Bern-Mittelland District,246,Wald (BE),888,46.8801,7.4616
CH,3086,Englisberg,Bern,BE,Bern-Mittelland District,246,Wald (BE),888,46.8955,7.4635
CH,3087,Niedermuhlern,Bern,BE,Bern-Mittelland District,246,Niedermuhlern,877,46.8587,7.4579
CH,3088,Oberbütschel,Bern,BE,Bern-Mittelland District,246,Rüeggisberg,880,46.8409,7.4534
CH,3088,Rüeggisberg,Bern,BE,Bern-Mittelland District,246,Rüeggisberg,880,46.8241,7.4383
CH,3089,Hinterfultigen,Bern,BE,Bern-Mittelland District,246,Rüeggisberg,880,46.8391,7.4052
CH,3095,Spiegel b. Bern,Bern,BE,Bern-Mittelland District,246,Köniz,355,46.9247,7.4342
CH,3096,Oberbalm,Bern,BE,Bern-Mittelland District,246,Oberbalm,357,46.8655,7.4093
CH,3097,Liebefeld,Bern,BE,Bern-Mittelland District,246,Köniz,355,46.9304,7.4192
CH,3098,Schliern b. Köniz,Bern,BE,Bern-Mittelland District,246,Köniz,355,46.907,7.4219
CH,3098,Köniz,Bern,BE,Bern-Mittelland District,246,Köniz,355,46.916,7.4181
CH,3099,Rüti b. Riggisberg,Bern,BE,Bern-Mittelland District,246,Riggisberg,879,46.7631,7.4568
CH,3110,Münsingen,Bern,BE,Bern-Mittelland District,246,Münsingen,616,46.8761,7.5607
CH,3111,Tägertschi,Bern,BE,Bern-Mittelland District,246,Münsingen,616,46.8726,7.5869
CH,3112,Allmendingen b. Bern,Bern,BE,Bern-Mittelland District,246,Allmendingen,630,46.9167,7.5211
CH,3113,Rubigen,Bern,BE,Bern-Mittelland District,246,Rubigen,623,46.8997,7.545
CH,3114,Wichtrach,Bern,BE,Bern-Mittelland District,246,Wichtrach,632,46.8451,7.5789
CH,3115,Gerzensee,Bern,BE,Bern-Mittelland District,246,Gerzensee,866,46.8463,7.5418
CH,3116,Mühledorf BE,Bern,BE,Bern-Mittelland District,246,Kirchdorf,872,46.8275,7.5303
CH,3116,Noflen BE,Bern,BE,Bern-Mittelland District,246,Kirchdorf,872,46.8027,7.5449
CH,3116,Kirchdorf BE,Bern,BE,Bern-Mittelland District,246,Kirchdorf,872,46.8172,7.5453
CH,3122,Kehrsatz,Bern,BE,Bern-Mittelland District,246,Kehrsatz,870,46.9114,7.472
CH,3123,Belp,Bern,BE,Bern-Mittelland District,246,Belp,861,46.8933,7.5077
CH,3124,Belpberg,Bern,BE,Bern-Mittelland District,246,Belp,861,46.8669,7.5211
CH,3125,Toffen,Bern,BE,Bern-Mittelland District,246,Toffen,884,46.8593,7.4935
CH,3126,Gelterfingen,Bern,BE,Bern-Mittelland District,246,Kirchdorf,872,46.8436,7.516
CH,3126,Kaufdorf,Bern,BE,Bern-Mittelland District,246,Kaufdorf,869,46.8397,7.4965
CH,3127,Lohnstorf,Bern,BE,Bern-Mittelland District,246,Thurnen,889,46.8066,7.5131
CH,3127,Mühlethurnen,Bern,BE,Bern-Mittelland District,246,Thurnen,889,46.8159,7.5103
CH,3128,Kirchenthurnen,Bern,BE,Bern-Mittelland District,246,Thurnen,889,46.8243,7.5058
CH,3128,Rümligen,Bern,BE,Bern-Mittelland District,246,Riggisberg,879,46.8287,7.4934
CH,3132,Riggisberg,Bern,BE,Bern-Mittelland District,246,Riggisberg,879,46.8098,7.4675
CH,3144,Gasel,Bern,BE,Bern-Mittelland District,246,Köniz,355,46.8971,7.4099
CH,3145,Niederscherli,Bern,BE,Bern-Mittelland District,246,Köniz,355,46.8857,7.394
CH,3147,Mittelhäusern,Bern,BE,Bern-Mittelland District,246,Köniz,355,46.8724,7.3699
CH,3148,Lanzenhäusern,Bern,BE,Bern-Mittelland District,246,Schwarzenburg,855,46.8466,7.3629
CH,3150,Schwarzenburg,Bern,BE,Bern-Mittelland District,246,Schwarzenburg,855,46.811,7.3335
CH,3152,Mamishaus,Bern,BE,Bern-Mittelland District,246,Schwarzenburg,855,46.8152,7.3801
CH,3153,Rüschegg Gambach,Bern,BE,Bern-Mittelland District,246,Rüschegg,853,46.7726,7.3774
CH,3154,Rüschegg Heubach,Bern,BE,Bern-Mittelland District,246,Rüschegg,853,46.7682,7.4174
CH,3155,Helgisried-Rohrbach,Bern,BE,Bern-Mittelland District,246,Rüeggisberg,880,46.8109,7.4184
CH,3156,Riffenmatt,Bern,BE,Bern-Mittelland District,246,Guggisberg,852,46.7507,7.3621
CH,3157,Milken,Bern,BE,Bern-Mittelland District,246,Schwarzenburg,855,46.794,7.3617
CH,3158,Guggisberg,Bern,BE,Bern-Mittelland District,246,Guggisberg,852,46.7591,7.3182
CH,3159,Riedstätt,Bern,BE,Bern-Mittelland District,246,Guggisberg,852,46.7841,7.3218
CH,3172,Niederwangen b. Bern,Bern,BE,Bern-Mittelland District,246,Köniz,355,46.9213,7.3786
CH,3173,Oberwangen b. Bern,Bern,BE,Bern-Mittelland District,246,Köniz,355,46.9136,7.3568
CH,3174,Thörishaus,Bern,BE,Bern-Mittelland District,246,Köniz,355,46.8967,7.35
CH,3176,Neuenegg,Bern,BE,Bern-Mittelland District,246,Neuenegg,670,46.9065,7.2997
CH,3177,Laupen BE,Bern,BE,Bern-Mittelland District,246,Laupen,667,46.9105,7.2433
CH,3179,Kriechenwil,Bern,BE,Bern-Mittelland District,246,Kriechenwil,666,46.9112,7.2159
CH,3183,Albligen,Bern,BE,Bern-Mittelland District,246,Schwarzenburg,855,46.8486,7.3229
CH,3202,Frauenkappelen,Bern,BE,Bern-Mittelland District,246,Frauenkappelen,663,46.9556,7.3319
CH,3203,Mühleberg,Bern,BE,Bern-Mittelland District,246,Mühleberg,668,46.9618,7.2718
CH,3204,Rosshäusern,Bern,BE,Bern-Mittelland District,246,Mühleberg,668,46.9313,7.2759
CH,3205,Gümmenen,Bern,BE,Bern-Mittelland District,246,Mühleberg,668,46.9431,7.2526
CH,3206,Ferenbalm,Bern,BE,Bern-Mittelland District,246,Ferenbalm,662,46.9551,7.2148
CH,3206,Biberen,Bern,BE,Bern-Mittelland District,246,Ferenbalm,662,46.9375,7.2128
CH,3206,Rizenbach,Bern,BE,Bern-Mittelland District,246,Ferenbalm,662,46.9489,7.2259
CH,3206,Gammen,Bern,BE,Bern-Mittelland District,246,Ferenbalm,662,46.9215,7.2264
CH,3207,Wileroltigen,Bern,BE,Bern-Mittelland District,246,Wileroltigen,671,46.9709,7.238
CH,3207,Golaten,Bern,BE,Bern-Mittelland District,246,Kallnach,304,46.9867,7.2393
CH,3208,Gurbrü,Bern,BE,Bern-Mittelland District,246,Gurbrü,665,46.9654,7.2145
CH,3302,Moosseedorf,Bern,BE,Bern-Mittelland District,246,Moosseedorf,544,47.0101,7.4845
CH,3303,Ballmoos,Bern,BE,Bern-Mittelland District,246,Jegenstorf,540,47.0409,7.4753
CH,3303,Münchringen,Bern,BE,Bern-Mittelland District,246,Jegenstorf,540,47.0484,7.5249
CH,3303,Zuzwil BE,Bern,BE,Bern-Mittelland District,246,Zuzwil (BE),557,47.0498,7.4673
CH,3303,Jegenstorf,Bern,BE,Bern-Mittelland District,246,Jegenstorf,540,47.0522,7.5036
CH,3305,Iffwil,Bern,BE,Bern-Mittelland District,246,Iffwil,541,47.0651,7.4771
CH,3305,Scheunen,Bern,BE,Bern-Mittelland District,246,Jegenstorf,540,47.0705,7.4549
CH,3306,Etzelkofen,Bern,BE,Bern-Mittelland District,246,Fraubrunnen,538,47.0835,7.4806
CH,3308,Grafenried,Bern,BE,Bern-Mittelland District,246,Fraubrunnen,538,47.0784,7.5055
CH,3309,Zauggenried,Bern,BE,Bern-Mittelland District,246,Fraubrunnen,538,47.0709,7.5322
CH,3312,Fraubrunnen,Bern,BE,Bern-Mittelland District,246,Fraubrunnen,538,47.0879,7.5386
CH,3313,Büren zum Hof,Bern,BE,Bern-Mittelland District,246,Fraubrunnen,538,47.0972,7.5116
CH,3314,Schalunen,Bern,BE,Bern-Mittelland District,246,Fraubrunnen,538,47.1102,7.5257
CH,3317,Mülchi,Bern,BE,Bern-Mittelland District,246,Fraubrunnen,538,47.1013,7.4761
CH,3317,Limpach,Bern,BE,Bern-Mittelland District,246,Fraubrunnen,538,47.1102,7.4987
CH,3321,Schönbühl EKZ,Bern,BE,Bern-Mittelland District,246,Moosseedorf,544,47.0168,7.4839
CH,3321,Schönbühl Einkaufszentrum,Bern,BE,Bern-Mittelland District,246,Moosseedorf,544,47.0168,7.4839
CH,3322,Mattstetten,Bern,BE,Bern-Mittelland District,246,Mattstetten,543,47.0232,7.5205
CH,3322,Urtenen-Schönbühl,Bern,BE,Bern-Mittelland District,246,Urtenen-Schönbühl,551,47.0216,7.4996
CH,3323,Bäriswil BE,Bern,BE,Bern-Mittelland District,246,Bäriswil,403,47.0169,7.532
CH,3434,Landiswil,Bern,BE,Bern-Mittelland District,246,Landiswil,613,46.9541,7.6886
CH,3434,Obergoldbach,Bern,BE,Bern-Mittelland District,246,Landiswil,613,46.9585,7.664
CH,3503,Gysenstein,Bern,BE,Bern-Mittelland District,246,Konolfingen,612,46.8935,7.5955
CH,3504,Niederhünigen,Bern,BE,Bern-Mittelland District,246,Niederhünigen,617,46.8711,7.6465
CH,3504,Oberhünigen,Bern,BE,Bern-Mittelland District,246,Oberhünigen,629,46.8733,7.6693
CH,3506,Grosshöchstetten,Bern,BE,Bern-Mittelland District,246,Grosshöchstetten,608,46.9068,7.6354
CH,3507,Biglen,Bern,BE,Bern-Mittelland District,246,Biglen,603,46.9286,7.6288
CH,3508,Arni BE,Bern,BE,Bern-Mittelland District,246,Arni (BE),602,46.9349,7.6601
CH,3510,Freimettigen,Bern,BE,Bern-Mittelland District,246,Freimettigen,607,46.8634,7.6325
CH,3510,Konolfingen,Bern,BE,Bern-Mittelland District,246,Konolfingen,612,46.8813,7.6179
CH,3510,Häutligen,Bern,BE,Bern-Mittelland District,246,Häutligen,609,46.8576,7.6047
CH,3512,Walkringen,Bern,BE,Bern-Mittelland District,246,Walkringen,626,46.9491,7.6199
CH,3513,Bigenthal,Bern,BE,Bern-Mittelland District,246,Walkringen,626,46.9721,7.6345
CH,3531,Oberthal,Bern,BE,Bern-Mittelland District,246,Oberthal,620,46.9187,7.6835
CH,3532,Mirchel,Bern,BE,Bern-Mittelland District,246,Mirchel,615,46.8915,7.6503
CH,3532,Zäziwil,Bern,BE,Bern-Mittelland District,246,Zäziwil,628,46.8956,7.6676
CH,3533,Bowil,Bern,BE,Bern-Mittelland District,246,Bowil,605,46.8891,7.7009
CH,3629,Jaberg,Bern,BE,Bern-Mittelland District,246,Jaberg,868,46.8202,7.5657
CH,3629,Kiesen,Bern,BE,Bern-Mittelland District,246,Kiesen,611,46.8124,7.5794
CH,3629,Oppligen,Bern,BE,Bern-Mittelland District,246,Oppligen,622,46.8172,7.5966
CH,3671,Herbligen,Bern,BE,Bern-Mittelland District,246,Herbligen,610,46.8271,7.611
CH,3671,Brenzikofen,Bern,BE,Bern-Mittelland District,246,Brenzikofen,606,46.8148,7.6165
CH,3672,Aeschlen b. Oberdiessbach,Bern,BE,Bern-Mittelland District,246,Oberdiessbach,619,46.8329,7.652
CH,3672,Oberdiessbach,Bern,BE,Bern-Mittelland District,246,Oberdiessbach,619,46.8426,7.6273
CH,3673,Linden,Bern,BE,Bern-Mittelland District,246,Linden,614,46.8497,7.6867
CH,3674,Bleiken b. Oberdiessbach,Bern,BE,Bern-Mittelland District,246,Oberdiessbach,619,46.8168,7.6401
CH,3600,Thun,Bern,BE,Thun District,247,Thun,942,46.7554,7.6234
CH,3602,Thun,Bern,BE,Thun District,247,Thun,942,46.7512,7.6217
CH,3603,Thun,Bern,BE,Thun District,247,Thun,942,46.7624,7.5991
CH,3604,Thun,Bern,BE,Thun District,247,Thun,942,46.7403,7.6201
CH,3607,Thun,Bern,BE,Thun District,247,Thun,942,46.7512,7.6217
CH,3608,Thun,Bern,BE,Thun District,247,Thun,942,46.7387,7.5974
CH,3609,Thun,Bern,BE,Thun District,247,Thun,942,46.7512,7.6217
CH,3612,Steffisburg,Bern,BE,Thun District,247,Steffisburg,939,46.7825,7.6336
CH,3613,Steffisburg,Bern,BE,Thun District,247,Steffisburg,939,46.7713,7.6157
CH,3614,Unterlangenegg,Bern,BE,Thun District,247,Unterlangenegg,945,46.7989,7.6936
CH,3615,Heimenschwand,Bern,BE,Thun District,247,Buchholterberg,923,46.821,7.6913
CH,3616,Schwarzenegg,Bern,BE,Thun District,247,Unterlangenegg,945,46.8,7.7343
CH,3617,Fahrni b. Thun,Bern,BE,Thun District,247,Fahrni,925,46.7978,7.6549
CH,3619,Eriz,Bern,BE,Thun District,247,Eriz,924,46.7805,7.8048
CH,3619,Innereriz,Bern,BE,Thun District,247,Eriz,924,46.7883,7.8239
CH,3622,Homberg b. Thun,Bern,BE,Thun District,247,Homberg,931,46.7764,7.6833
CH,3623,Buchen BE,Bern,BE,Thun District,247,Horrenbach-Buchen,932,46.7821,7.7084
CH,3623,Horrenbach,Bern,BE,Thun District,247,Horrenbach-Buchen,932,46.7775,7.7467
CH,3623,Teuffenthal b. Thun,Bern,BE,Thun District,247,Teuffenthal (BE),940,46.7669,7.7192
CH,3624,Schwendibach,Bern,BE,Thun District,247,Steffisburg,939,46.7699,7.661
CH,3624,Goldiwil (Thun),Bern,BE,Thun District,247,Thun,942,46.7614,7.6654
CH,3625,Heiligenschwendi,Bern,BE,Thun District,247,Heiligenschwendi,927,46.752,7.6822
CH,3626,Hünibach,Bern,BE,Thun District,247,Hilterfingen,929,46.7477,7.6487
CH,3627,Heimberg,Bern,BE,Thun District,247,Heimberg,928,46.7944,7.6032
CH,3628,Uttigen,Bern,BE,Thun District,247,Uttigen,885,46.795,7.5732
CH,3631,Höfen b. Thun,Bern,BE,Thun District,247,Stocken-Höfen,770,46.7225,7.5666
CH,3632,Oberstocken,Bern,BE,Thun District,247,Stocken-Höfen,770,46.7068,7.5502
CH,3632,Niederstocken,Bern,BE,Thun District,247,Stocken-Höfen,770,46.7021,7.5712
CH,3633,Amsoldingen,Bern,BE,Thun District,247,Amsoldingen,921,46.7261,7.5854
CH,3634,Thierachern,Bern,BE,Thun District,247,Thierachern,941,46.7519,7.5719
CH,3635,Uebeschi,Bern,BE,Thun District,247,Uebeschi,943,46.7395,7.5473
CH,3636,Forst b. Längenbühl,Bern,BE,Thun District,247,Forst-Längenbühl,948,46.7647,7.524
CH,3636,Längenbühl,Bern,BE,Thun District,247,Forst-Längenbühl,948,46.7579,7.5385
CH,3638,Blumenstein,Bern,BE,Thun District,247,Blumenstein,922,46.7281,7.4955
CH,3638,Pohlern,Bern,BE,Thun District,247,Pohlern,936,46.7157,7.5229
CH,3645,Zwieselberg,Bern,BE,Thun District,247,Zwieselberg,947,46.7097,7.615
CH,3647,Reutigen,Bern,BE,Thun District,247,Reutigen,767,46.6927,7.6055
CH,3652,Hilterfingen,Bern,BE,Thun District,247,Hilterfingen,929,46.7408,7.6628
CH,3653,Oberhofen am Thunersee,Bern,BE,Thun District,247,Oberhofen am Thunersee,934,46.7332,7.6771
CH,3654,Gunten,Bern,BE,Thun District,247,Sigriswil,938,46.7145,7.7023
CH,3655,Sigriswil,Bern,BE,Thun District,247,Sigriswil,938,46.7193,7.7344
CH,3656,Ringoldswil,Bern,BE,Thun District,247,Sigriswil,938,46.7375,7.6948
CH,3656,Tschingel ob Gunten,Bern,BE,Thun District,247,Sigriswil,938,46.7257,7.7088
CH,3656,Aeschlen ob Gunten,Bern,BE,Thun District,247,Sigriswil,938,46.7216,7.6966
CH,3657,Schwanden (Sigriswil),Bern,BE,Thun District,247,Sigriswil,938,46.7443,7.7572
CH,3658,Merligen,Bern,BE,Thun District,247,Sigriswil,938,46.704,7.753
CH,3661,Uetendorf,Bern,BE,Thun District,247,Uetendorf,944,46.775,7.5746
CH,3662,Seftigen,Bern,BE,Thun District,247,Seftigen,883,46.7904,7.5392
CH,3663,Gurzelen,Bern,BE,Thun District,247,Gurzelen,867,46.7753,7.5357
CH,3664,Burgistein,Bern,BE,Thun District,247,Burgistein,863,46.792,7.5032
CH,3665,Wattenwil,Bern,BE,Thun District,247,Wattenwil,886,46.7594,7.4929
CH,1657,Abländschen,Bern,BE,Obersimmental-Saanen District,248,Saanen,843,46.5662,7.2768
CH,3766,Boltigen,Bern,BE,Obersimmental-Saanen District,248,Boltigen,791,46.6052,7.3582
CH,3770,Zweisimmen,Bern,BE,Obersimmental-Saanen District,248,Zweisimmen,794,46.562,7.3903
CH,3771,Blankenburg,Bern,BE,Obersimmental-Saanen District,248,Zweisimmen,794,46.542,7.4183
CH,3772,St. Stephan,Bern,BE,Obersimmental-Saanen District,248,St. Stephan,793,46.4964,7.3917
CH,3773,Matten (St. Stephan),Bern,BE,Obersimmental-Saanen District,248,St. Stephan,793,46.5104,7.4622
CH,3775,Lenk im Simmental,Bern,BE,Obersimmental-Saanen District,248,Lenk,792,46.4251,7.4565
CH,3776,Oeschseite,Bern,BE,Obersimmental-Saanen District,248,Zweisimmen,794,46.5268,7.3277
CH,3777,Saanenmöser,Bern,BE,Obersimmental-Saanen District,248,Saanen,843,46.5157,7.305
CH,3778,Schönried,Bern,BE,Obersimmental-Saanen District,248,Saanen,843,46.52,7.2714
CH,3780,Gstaad,Bern,BE,Obersimmental-Saanen District,248,Saanen,843,46.4707,7.2946
CH,3781,Turbach,Bern,BE,Obersimmental-Saanen District,248,Saanen,843,46.4629,7.3509
CH,3782,Lauenen b. Gstaad,Bern,BE,Obersimmental-Saanen District,248,Lauenen,842,46.3981,7.3386
CH,3783,Grund b. Gstaad,Bern,BE,Obersimmental-Saanen District,248,Saanen,843,46.4375,7.2524
CH,3784,Feutersoey,Bern,BE,Obersimmental-Saanen District,248,Gsteig,841,46.4044,7.2444
CH,3785,Gsteig b. Gstaad,Bern,BE,Obersimmental-Saanen District,248,Gsteig,841,46.3691,7.2591
CH,3792,Saanen,Bern,BE,Obersimmental-Saanen District,248,Saanen,843,46.4775,7.2495
CH,3645,Gwatt (Thun),Bern,BE,Frutigen-Niedersimmental District,249,Spiez,768,46.7235,7.6213
CH,3646,Einigen,Bern,BE,Frutigen-Niedersimmental District,249,Spiez,768,46.7071,7.6453
CH,3700,Spiez,Bern,BE,Frutigen-Niedersimmental District,249,Spiez,768,46.6857,7.6698
CH,3702,Hondrich,Bern,BE,Frutigen-Niedersimmental District,249,Spiez,768,46.6718,7.6818
CH,3703,Aeschiried,Bern,BE,Frutigen-Niedersimmental District,249,Aeschi bei Spiez,562,46.6135,7.7685
CH,3703,Aeschi b. Spiez,Bern,BE,Frutigen-Niedersimmental District,249,Aeschi bei Spiez,562,46.6543,7.6988
CH,3704,Krattigen,Bern,BE,Frutigen-Niedersimmental District,249,Krattigen,566,46.6508,7.7393
CH,3705,Faulensee,Bern,BE,Frutigen-Niedersimmental District,249,Spiez,768,46.6721,7.7074
CH,3711,Emdthal,Bern,BE,Frutigen-Niedersimmental District,249,Aeschi bei Spiez,562,46.6505,7.6807
CH,3711,Mülenen,Bern,BE,Frutigen-Niedersimmental District,249,Reichenbach im Kandertal,567,46.6396,7.675
CH,3713,Reichenbach im Kandertal,Bern,BE,Frutigen-Niedersimmental District,249,Reichenbach im Kandertal,567,46.618,7.6918
CH,3714,Frutigen,Bern,BE,Frutigen-Niedersimmental District,249,Frutigen,563,46.5854,7.6383
CH,3714,Wengi b. Frutigen,Bern,BE,Frutigen-Niedersimmental District,249,Reichenbach im Kandertal,567,46.6225,7.6464
CH,3715,Adelboden,Bern,BE,Frutigen-Niedersimmental District,249,Adelboden,561,46.4736,7.5552
CH,3716,Kandergrund,Bern,BE,Frutigen-Niedersimmental District,249,Kandergrund,564,46.5515,7.6677
CH,3717,Blausee-Mitholz,Bern,BE,Frutigen-Niedersimmental District,249,Kandergrund,564,46.525,7.6837
CH,3718,Kandersteg,Bern,BE,Frutigen-Niedersimmental District,249,Kandersteg,565,46.4692,7.7083
CH,3722,Scharnachtal,Bern,BE,Frutigen-Niedersimmental District,249,Reichenbach im Kandertal,567,46.6148,7.7159
CH,3723,Kiental,Bern,BE,Frutigen-Niedersimmental District,249,Reichenbach im Kandertal,567,46.5561,7.7608
CH,3724,Ried (Frutigen),Bern,BE,Frutigen-Niedersimmental District,249,Frutigen,563,46.5604,7.5942
CH,3725,Achseten,Bern,BE,Frutigen-Niedersimmental District,249,Frutigen,563,46.5291,7.6046
CH,3752,Wimmis,Bern,BE,Frutigen-Niedersimmental District,249,Wimmis,769,46.6616,7.6412
CH,3753,Oey,Bern,BE,Frutigen-Niedersimmental District,249,Diemtigen,762,46.6477,7.5971
CH,3754,Diemtigen,Bern,BE,Frutigen-Niedersimmental District,249,Diemtigen,762,46.6466,7.5579
CH,3755,Horboden,Bern,BE,Frutigen-Niedersimmental District,249,Diemtigen,762,46.6038,7.572
CH,3756,Zwischenflüh,Bern,BE,Frutigen-Niedersimmental District,249,Diemtigen,762,46.6022,7.5015
CH,3757,Schwenden im Diemtigtal,Bern,BE,Frutigen-Niedersimmental District,249,Diemtigen,762,46.5563,7.5001
CH,3758,Latterbach,Bern,BE,Frutigen-Niedersimmental District,249,Erlenbach im Simmental,763,46.6721,7.5895
CH,3762,Erlenbach im Simmental,Bern,BE,Frutigen-Niedersimmental District,249,Erlenbach im Simmental,763,46.6585,7.5302
CH,3763,Därstetten,Bern,BE,Frutigen-Niedersimmental District,249,Därstetten,761,46.6804,7.5051
CH,3764,Weissenburg,Bern,BE,Frutigen-Niedersimmental District,249,Därstetten,761,46.6661,7.477
CH,3765,Oberwil im Simmental,Bern,BE,Frutigen-Niedersimmental District,249,Oberwil im Simmental,766,46.6559,7.4312
CH,3706,Leissigen,Bern,BE,Interlaken-Oberhasli District,250,Leissigen,585,46.6428,7.7789
CH,3707,Därligen,Bern,BE,Interlaken-Oberhasli District,250,Därligen,575,46.6539,7.8128
CH,3800,Matten b. Interlaken,Bern,BE,Interlaken-Oberhasli District,250,Matten bei Interlaken,587,46.6763,7.8649
CH,3800,Interlaken,Bern,BE,Interlaken-Oberhasli District,250,Interlaken,581,46.6867,7.866
CH,3800,Sundlauenen,Bern,BE,Interlaken-Oberhasli District,250,Beatenberg,571,46.6857,7.7818
CH,3800,Interlaken,Bern,BE,Interlaken-Oberhasli District,250,Gündlischwand,578,46.6867,7.866
CH,3800,Unterseen,Bern,BE,Interlaken-Oberhasli District,250,Unterseen,593,46.6945,7.8405
CH,3802,Interlaken Ost,Bern,BE,Interlaken-Oberhasli District,250,Interlaken,581,46.6871,7.8649
CH,3803,Beatenberg,Bern,BE,Interlaken-Oberhasli District,250,Beatenberg,571,46.717,7.8063
CH,3804,Habkern,Bern,BE,Interlaken-Oberhasli District,250,Habkern,579,46.755,7.8899
CH,3805,Goldswil b. Interlaken,Bern,BE,Interlaken-Oberhasli District,250,Ringgenberg (BE),590,46.7005,7.8745
CH,3806,Bönigen b. Interlaken,Bern,BE,Interlaken-Oberhasli District,250,Bönigen,572,46.6804,7.9238
CH,3807,Iseltwald,Bern,BE,Interlaken-Oberhasli District,250,Iseltwald,582,46.7011,7.9899
CH,3812,Wilderswil,Bern,BE,Interlaken-Oberhasli District,250,Wilderswil,594,46.6488,7.8691
CH,3813,Saxeten,Bern,BE,Interlaken-Oberhasli District,250,Saxeten,591,46.6251,7.8275
CH,3814,Gsteigwiler,Bern,BE,Interlaken-Oberhasli District,250,Gsteigwiler,577,46.6522,7.889
CH,3815,Gündlischwand,Bern,BE,Interlaken-Oberhasli District,250,Gündlischwand,578,46.6552,7.9369
CH,3815,Zweilütschinen,Bern,BE,Interlaken-Oberhasli District,250,Gündlischwand,578,46.626,7.9068
CH,3816,Burglauenen,Bern,BE,Interlaken-Oberhasli District,250,Grindelwald,576,46.6331,7.9739
CH,3816,Lütschental,Bern,BE,Interlaken-Oberhasli District,250,Lütschental,586,46.6439,7.9522
CH,3818,Grindelwald,Bern,BE,Interlaken-Oberhasli District,250,Grindelwald,576,46.6186,8.0535
CH,3822,Lauterbrunnen,Bern,BE,Interlaken-Oberhasli District,250,Lauterbrunnen,584,46.5952,7.9072
CH,3822,Isenfluh,Bern,BE,Interlaken-Oberhasli District,250,Lauterbrunnen,584,46.5967,7.8565
CH,3823,Kleine Scheidegg,Bern,BE,Interlaken-Oberhasli District,250,Lauterbrunnen,584,46.5844,7.9602
CH,3823,Eigergletscher,Bern,BE,Interlaken-Oberhasli District,250,Lauterbrunnen,584,46.5748,7.9744
CH,3823,Wengen,Bern,BE,Interlaken-Oberhasli District,250,Lauterbrunnen,584,46.5751,7.9498
CH,3824,Stechelberg,Bern,BE,Interlaken-Oberhasli District,250,Lauterbrunnen,584,46.515,7.8979
CH,3825,Mürren,Bern,BE,Interlaken-Oberhasli District,250,Lauterbrunnen,584,46.5766,7.8827
CH,3826,Gimmelwald,Bern,BE,Interlaken-Oberhasli District,250,Lauterbrunnen,584,46.538,7.8517
CH,3852,Ringgenberg BE,Bern,BE,Interlaken-Oberhasli District,250,Ringgenberg (BE),590,46.7114,7.8968
CH,3853,Niederried b. Interlaken,Bern,BE,Interlaken-Oberhasli District,250,Niederried bei Interlaken,588,46.7249,7.9263
CH,3854,Oberried am Brienzersee,Bern,BE,Interlaken-Oberhasli District,250,Oberried am Brienzersee,589,46.7563,7.9571
CH,3855,Axalp,Bern,BE,Interlaken-Oberhasli District,250,Brienz (BE),573,46.7215,8.0399
CH,3855,Schwanden b. Brienz,Bern,BE,Interlaken-Oberhasli District,250,Schwanden bei Brienz,592,46.7711,8.0557
CH,3855,Brienz BE,Bern,BE,Interlaken-Oberhasli District,250,Brienz (BE),573,46.7321,8.0379
CH,3856,Brienzwiler,Bern,BE,Interlaken-Oberhasli District,250,Brienzwiler,574,46.7586,8.106
CH,3857,Unterbach BE,Bern,BE,Interlaken-Oberhasli District,250,Meiringen,785,46.7378,8.119
CH,3858,Hofstetten b. Brienz,Bern,BE,Interlaken-Oberhasli District,250,Hofstetten bei Brienz,580,46.7669,8.0799
CH,3860,Meiringen,Bern,BE,Interlaken-Oberhasli District,250,Meiringen,785,46.7108,8.1255
CH,3860,Brünig,Bern,BE,Interlaken-Oberhasli District,250,Meiringen,785,46.7587,8.133
CH,3860,Schattenhalb,Bern,BE,Interlaken-Oberhasli District,250,Schattenhalb,786,46.6942,8.17
CH,3860,Rosenlaui,Bern,BE,Interlaken-Oberhasli District,250,Schattenhalb,786,46.6796,8.1537
CH,3862,Innertkirchen,Bern,BE,Interlaken-Oberhasli District,250,Innertkirchen,784,46.6717,8.2371
CH,3863,Gadmen,Bern,BE,Interlaken-Oberhasli District,250,Innertkirchen,784,46.7112,8.3757
CH,3864,Guttannen,Bern,BE,Interlaken-Oberhasli District,250,Guttannen,782,46.5965,8.2578
CH,6083,Hasliberg Hohfluh,Bern,BE,Interlaken-Oberhasli District,250,Hasliberg,783,46.7543,8.1733
CH,6084,Hasliberg Wasserwendi,Bern,BE,Interlaken-Oberhasli District,250,Hasliberg,783,46.7559,8.2104
CH,6085,Hasliberg Goldern,Bern,BE,Interlaken-Oberhasli District,250,Hasliberg,783,46.7385,8.1963
CH,6086,Hasliberg Reuti,Bern,BE,Interlaken-Oberhasli District,250,Hasliberg,783,46.7418,8.2522
CH,4040,Basel,Basel-Landschaft,BL,Bezirk Arlesheim,1301,Münchenstein,2769,47.5186,7.6174
CH,4042,Basel PF OC,Basel-Landschaft,BL,Bezirk Arlesheim,1301,Münchenstein,2769,47.5186,7.6174
CH,4042,Basel PF Operations Center,Basel-Landschaft,BL,Bezirk Arlesheim,1301,Münchenstein,2769,47.5186,7.6174
CH,4101,Bruderholz,Basel-Landschaft,BL,Bezirk Arlesheim,1301,Binningen,2765,47.528,7.5812
CH,4102,Binningen,Basel-Landschaft,BL,Bezirk Arlesheim,1301,Binningen,2765,47.5367,7.5676
CH,4102,Binningen 1,Basel-Landschaft,BL,Bezirk Arlesheim,1301,Binningen,2765,47.5367,7.5678
CH,4103,Bottmingen,Basel-Landschaft,BL,Bezirk Arlesheim,1301,Bottmingen,2767,47.522,7.5765
CH,4104,Oberwil BL,Basel-Landschaft,BL,Bezirk Arlesheim,1301,Oberwil (BL),2771,47.5169,7.5508
CH,4105,Biel-Benken BL,Basel-Landschaft,BL,Bezirk Arlesheim,1301,Biel-Benken,2764,47.5077,7.5209
CH,4106,Therwil,Basel-Landschaft,BL,Bezirk Arlesheim,1301,Therwil,2775,47.4976,7.5589
CH,4107,Ettingen,Basel-Landschaft,BL,Bezirk Arlesheim,1301,Ettingen,2768,47.4745,7.5459
CH,4123,Allschwil 1,Basel-Landschaft,BL,Bezirk Arlesheim,1301,Allschwil,2762,47.5451,7.5375
CH,4123,Allschwil,Basel-Landschaft,BL,Bezirk Arlesheim,1301,Allschwil,2762,47.545,7.5375
CH,4124,Schönenbuch,Basel-Landschaft,BL,Bezirk Arlesheim,1301,Schönenbuch,2774,47.5352,7.5061
CH,4127,Birsfelden,Basel-Landschaft,BL,Bezirk Arlesheim,1301,Birsfelden,2766,47.5508,7.6363
CH,4132,Muttenz,Basel-Landschaft,BL,Bezirk Arlesheim,1301,Muttenz,2770,47.5234,7.6481
CH,4132,Muttenz 1,Basel-Landschaft,BL,Bezirk Arlesheim,1301,Muttenz,2770,47.5248,7.6491
CH,4142,Münchenstein,Basel-Landschaft,BL,Bezirk Arlesheim,1301,Münchenstein,2769,47.5169,7.6175
CH,4142,Münchenstein 1,Basel-Landschaft,BL,Bezirk Arlesheim,1301,Münchenstein,2769,47.5186,7.6174
CH,4144,Arlesheim,Basel-Landschaft,BL,Bezirk Arlesheim,1301,Arlesheim,2763,47.4955,7.6283
CH,4147,Aesch BL,Basel-Landschaft,BL,Bezirk Arlesheim,1301,Aesch (BL),2761,47.4728,7.584
CH,4148,Pfeffingen,Basel-Landschaft,BL,Bezirk Arlesheim,1301,Pfeffingen,2772,47.4562,7.582
CH,4153,Reinach BL 1,Basel-Landschaft,BL,Bezirk Arlesheim,1301,Reinach (BL),2773,47.4975,7.5912
CH,4153,Reinach BL,Basel-Landschaft,BL,Bezirk Arlesheim,1301,Reinach (BL),2773,47.4973,7.5909
CH,2814,Roggenburg,Basel-Landschaft,BL,Bezirk Laufen,1302,Roggenburg,2790,47.4277,7.3567
CH,4117,Burg im Leimental,Basel-Landschaft,BL,Bezirk Laufen,1302,Burg im Leimental,2783,47.4523,7.4368
CH,4202,Duggingen,Basel-Landschaft,BL,Bezirk Laufen,1302,Duggingen,2785,47.4513,7.6096
CH,4203,Grellingen,Basel-Landschaft,BL,Bezirk Laufen,1302,Grellingen,2786,47.439,7.5866
CH,4222,Zwingen,Basel-Landschaft,BL,Bezirk Laufen,1302,Zwingen,2793,47.436,7.5279
CH,4223,Blauen,Basel-Landschaft,BL,Bezirk Laufen,1302,Blauen,2781,47.4527,7.5233
CH,4224,Nenzlingen,Basel-Landschaft,BL,Bezirk Laufen,1302,Nenzlingen,2789,47.4493,7.5609
CH,4225,Brislach,Basel-Landschaft,BL,Bezirk Laufen,1302,Brislach,2782,47.4252,7.5496
CH,4242,Laufen,Basel-Landschaft,BL,Bezirk Laufen,1302,Laufen,2787,47.4105,7.4911
CH,4243,Dittingen,Basel-Landschaft,BL,Bezirk Laufen,1302,Dittingen,2784,47.4415,7.4927
CH,4244,Röschenz,Basel-Landschaft,BL,Bezirk Laufen,1302,Röschenz,2791,47.4329,7.4649
CH,4246,Wahlen b. Laufen,Basel-Landschaft,BL,Bezirk Laufen,1302,Wahlen,2792,47.398,7.5115
CH,4253,Liesberg,Basel-Landschaft,BL,Bezirk Laufen,1302,Liesberg,2788,47.3952,7.4298
CH,4254,Liesberg Dorf,Basel-Landschaft,BL,Bezirk Laufen,1302,Liesberg,2788,47.4074,7.4156
CH,4133,Pratteln,Basel-Landschaft,BL,Bezirk Liestal,1303,Pratteln,2831,47.5192,7.6913
CH,4133,Pratteln 1,Basel-Landschaft,BL,Bezirk Liestal,1303,Pratteln,2831,47.5185,7.6927
CH,4302,Augst BL,Basel-Landschaft,BL,Bezirk Liestal,1303,Augst,2822,47.5321,7.7176
CH,4304,Giebenach,Basel-Landschaft,BL,Bezirk Liestal,1303,Giebenach,2826,47.5234,7.7383
CH,4402,Frenkendorf,Basel-Landschaft,BL,Bezirk Liestal,1303,Frenkendorf,2824,47.5009,7.6971
CH,4410,Liestal,Basel-Landschaft,BL,Bezirk Liestal,1303,Liestal,2829,47.4853,7.7255
CH,4411,Seltisberg,Basel-Landschaft,BL,Bezirk Liestal,1303,Seltisberg,2833,47.462,7.7157
CH,4414,Füllinsdorf,Basel-Landschaft,BL,Bezirk Liestal,1303,Füllinsdorf,2825,47.5109,7.732
CH,4415,Lausen,Basel-Landschaft,BL,Bezirk Liestal,1303,Lausen,2828,47.4706,7.7656
CH,4416,Bubendorf,Basel-Landschaft,BL,Bezirk Liestal,1303,Bubendorf,2823,47.4458,7.737
CH,4417,Ziefen,Basel-Landschaft,BL,Bezirk Liestal,1303,Ziefen,2834,47.429,7.7027
CH,4419,Lupsingen,Basel-Landschaft,BL,Bezirk Liestal,1303,Lupsingen,2830,47.4463,7.6961
CH,4422,Arisdorf,Basel-Landschaft,BL,Bezirk Liestal,1303,Arisdorf,2821,47.5093,7.7665
CH,4423,Hersberg,Basel-Landschaft,BL,Bezirk Liestal,1303,Hersberg,2827,47.4922,7.7833
CH,4433,Ramlinsburg,Basel-Landschaft,BL,Bezirk Liestal,1303,Ramlinsburg,2832,47.4502,7.7682
CH,4441,Thürnen,Basel-Landschaft,BL,Bezirk Sissach,1304,Thürnen,2864,47.4531,7.8289
CH,4442,Diepflingen,Basel-Landschaft,BL,Bezirk Sissach,1304,Diepflingen,2845,47.445,7.8404
CH,4443,Wittinsburg,Basel-Landschaft,BL,Bezirk Sissach,1304,Wittinsburg,2867,47.4297,7.8386
CH,4444,Rümlingen,Basel-Landschaft,BL,Bezirk Sissach,1304,Rümlingen,2859,47.428,7.856
CH,4445,Häfelfingen,Basel-Landschaft,BL,Bezirk Sissach,1304,Häfelfingen,2847,47.4139,7.8704
CH,4446,Buckten,Basel-Landschaft,BL,Bezirk Sissach,1304,Buckten,2843,47.4116,7.8467
CH,4447,Känerkinden,Basel-Landschaft,BL,Bezirk Sissach,1304,Känerkinden,2850,47.4116,7.8324
CH,4448,Läufelfingen,Basel-Landschaft,BL,Bezirk Sissach,1304,Läufelfingen,2852,47.3942,7.856
CH,4450,Sissach,Basel-Landschaft,BL,Bezirk Sissach,1304,Sissach,2861,47.4722,7.8076
CH,4451,Wintersingen,Basel-Landschaft,BL,Bezirk Sissach,1304,Wintersingen,2866,47.4961,7.8271
CH,4452,Itingen,Basel-Landschaft,BL,Bezirk Sissach,1304,Itingen,2849,47.4647,7.7847
CH,4453,Nusshof,Basel-Landschaft,BL,Bezirk Sissach,1304,Nusshof,2854,47.4915,7.7985
CH,4455,Zunzgen,Basel-Landschaft,BL,Bezirk Sissach,1304,Zunzgen,2869,47.4451,7.7986
CH,4456,Tenniken,Basel-Landschaft,BL,Bezirk Sissach,1304,Tenniken,2863,47.4325,7.8146
CH,4460,Gelterkinden,Basel-Landschaft,BL,Bezirk Sissach,1304,Gelterkinden,2846,47.4571,7.8586
CH,4461,Böckten,Basel-Landschaft,BL,Bezirk Sissach,1304,Böckten,2842,47.4673,7.8344
CH,4462,Rickenbach BL,Basel-Landschaft,BL,Bezirk Sissach,1304,Rickenbach (BL),2857,47.4847,7.8492
CH,4463,Buus,Basel-Landschaft,BL,Bezirk Sissach,1304,Buus,2844,47.5047,7.8661
CH,4464,Maisprach,Basel-Landschaft,BL,Bezirk Sissach,1304,Maisprach,2853,47.5223,7.8458
CH,4465,Hemmiken,Basel-Landschaft,BL,Bezirk Sissach,1304,Hemmiken,2848,47.4902,7.8917
CH,4466,Ormalingen,Basel-Landschaft,BL,Bezirk Sissach,1304,Ormalingen,2856,47.4731,7.8784
CH,4467,Rothenfluh,Basel-Landschaft,BL,Bezirk Sissach,1304,Rothenfluh,2858,47.4703,7.9177
CH,4469,Anwil,Basel-Landschaft,BL,Bezirk Sissach,1304,Anwil,2841,47.453,7.942
CH,4492,Tecknau,Basel-Landschaft,BL,Bezirk Sissach,1304,Tecknau,2862,47.4454,7.8897
CH,4493,Wenslingen,Basel-Landschaft,BL,Bezirk Sissach,1304,Wenslingen,2865,47.4432,7.91
CH,4494,Oltingen,Basel-Landschaft,BL,Bezirk Sissach,1304,Oltingen,2855,47.4302,7.9373
CH,4495,Zeglingen,Basel-Landschaft,BL,Bezirk Sissach,1304,Zeglingen,2868,47.4121,7.9123
CH,4496,Kilchberg BL,Basel-Landschaft,BL,Bezirk Sissach,1304,Kilchberg (BL),2851,47.4257,7.8969
CH,4497,Rünenberg,Basel-Landschaft,BL,Bezirk Sissach,1304,Rünenberg,2860,47.432,7.8804
CH,4207,Bretzwil,Basel-Landschaft,BL,Bezirk Waldenburg,1305,Bretzwil,2883,47.3961,7.6501
CH,4418,Reigoldswil,Basel-Landschaft,BL,Bezirk Waldenburg,1305,Reigoldswil,2893,47.3948,7.6904
CH,4424,Arboldswil,Basel-Landschaft,BL,Bezirk Waldenburg,1305,Arboldswil,2881,47.4148,7.7185
CH,4425,Titterten,Basel-Landschaft,BL,Bezirk Waldenburg,1305,Titterten,2894,47.402,7.7148
CH,4426,Lauwil,Basel-Landschaft,BL,Bezirk Waldenburg,1305,Lauwil,2889,47.3802,7.6679
CH,4431,Bennwil,Basel-Landschaft,BL,Bezirk Waldenburg,1305,Bennwil,2882,47.3963,7.7821
CH,4432,Lampenberg,Basel-Landschaft,BL,Bezirk Waldenburg,1305,Lampenberg,2887,47.4267,7.7539
CH,4434,Hölstein,Basel-Landschaft,BL,Bezirk Waldenburg,1305,Hölstein,2886,47.4259,7.7749
CH,4435,Niederdorf,Basel-Landschaft,BL,Bezirk Waldenburg,1305,Niederdorf,2891,47.4105,7.7475
CH,4436,Liedertswil,Basel-Landschaft,BL,Bezirk Waldenburg,1305,Liedertswil,2890,47.3887,7.7206
CH,4436,Oberdorf BL,Basel-Landschaft,BL,Bezirk Waldenburg,1305,Oberdorf (BL),2892,47.3928,7.7526
CH,4437,Waldenburg,Basel-Landschaft,BL,Bezirk Waldenburg,1305,Waldenburg,2895,47.3771,7.7402
CH,4438,Langenbruck,Basel-Landschaft,BL,Bezirk Waldenburg,1305,Langenbruck,2888,47.3577,7.7711
CH,4457,Diegten,Basel-Landschaft,BL,Bezirk Waldenburg,1305,Diegten,2884,47.4093,7.8097
CH,4458,Eptingen,Basel-Landschaft,BL,Bezirk Waldenburg,1305,Eptingen,2885,47.3797,7.8173
CH,4000,Basel,Basel-Stadt,BS,Basel-Stadt,1200,Basel,2701,47.5584,7.5733
CH,4001,Basel,Basel-Stadt,BS,Basel-Stadt,1200,Basel,2701,47.5568,7.5887
CH,4002,Basel,Basel-Stadt,BS,Basel-Stadt,1200,Basel,2701,47.5584,7.5733
CH,4005,Basel,Basel-Stadt,BS,Basel-Stadt,1200,Basel,2701,47.5584,7.5733
CH,4009,Basel,Basel-Stadt,BS,Basel-Stadt,1200,Basel,2701,47.5584,7.5733
CH,4010,Basel,Basel-Stadt,BS,Basel-Stadt,1200,Basel,2701,47.5584,7.5733
CH,4018,Basel,Basel-Stadt,BS,Basel-Stadt,1200,Basel,2701,47.5584,7.5733
CH,4019,Basel,Basel-Stadt,BS,Basel-Stadt,1200,Basel,2701,47.5584,7.5733
CH,4020,Basel,Basel-Stadt,BS,Basel-Stadt,1200,Basel,2701,47.5584,7.5733
CH,4030,Basel,Basel-Stadt,BS,Basel-Stadt,1200,Basel,2701,47.5584,7.5733
CH,4031,Basel,Basel-Stadt,BS,Basel-Stadt,1200,Basel,2701,47.5619,7.5823
CH,4039,Basel,Basel-Stadt,BS,Basel-Stadt,1200,Basel,2701,47.5577,7.5936
CH,4039,Basel SSF,Basel-Stadt,BS,Basel-Stadt,1200,Basel,2701,47.5577,7.5936
CH,4041,Basel,Basel-Stadt,BS,Basel-Stadt,1200,Basel,2701,47.5577,7.5936
CH,4041,Basel UBS,Basel-Stadt,BS,Basel-Stadt,1200,Basel,2701,47.5577,7.5936
CH,4051,Basel,Basel-Stadt,BS,Basel-Stadt,1200,Basel,2701,47.554,7.5865
CH,4052,Basel,Basel-Stadt,BS,Basel-Stadt,1200,Basel,2701,47.5457,7.6096
CH,4052,Basel,Basel-Stadt,BS,Basel-Stadt,1200,Basel,2701,47.5457,7.6096
CH,4053,Basel,Basel-Stadt,BS,Basel-Stadt,1200,Basel,2701,47.5406,7.5964
CH,4054,Basel,Basel-Stadt,BS,Basel-Stadt,1200,Basel,2701,47.5497,7.5696
CH,4055,Basel,Basel-Stadt,BS,Basel-Stadt,1200,Basel,2701,47.5626,7.5667
CH,4056,Basel,Basel-Stadt,BS,Basel-Stadt,1200,Basel,2701,47.5698,7.5749
CH,4057,Basel,Basel-Stadt,BS,Basel-Stadt,1200,Basel,2701,47.5767,7.5947
CH,4058,Basel,Basel-Stadt,BS,Basel-Stadt,1200,Basel,2701,47.566,7.6112
CH,4059,Basel,Basel-Stadt,BS,Basel-Stadt,1200,Basel,2701,47.5309,7.5939
CH,4070,Basel,Basel-Stadt,BS,Basel-Stadt,1200,Basel,2701,47.5584,7.5733
CH,4075,Basel,Basel-Stadt,BS,Basel-Stadt,1200,Basel,2701,47.5584,7.5733
CH,4089,Basel,Basel-Stadt,BS,Basel-Stadt,1200,Basel,2701,47.5577,7.5936
CH,4089,Basel SPILOG,Basel-Stadt,BS,Basel-Stadt,1200,Basel,2701,47.5577,7.5936
CH,4089,Basel SPI GLS,Basel-Stadt,BS,Basel-Stadt,1200,Basel,2701,47.5577,7.5936
CH,4089,Basel SPI GLS Retour,Basel-Stadt,BS,Basel-Stadt,1200,Basel,2701,47.5577,7.5936
CH,4091,Basel,Basel-Stadt,BS,Basel-Stadt,1200,Basel,2701,47.5584,7.5733
CH,4125,Riehen,Basel-Stadt,BS,Basel-Stadt,1200,Riehen,2703,47.5795,7.6512
CH,4125,Riehen 1,Basel-Stadt,BS,Basel-Stadt,1200,Riehen,2703,47.5794,7.6512
CH,4126,Bettingen,Basel-Stadt,BS,Basel-Stadt,1200,Bettingen,2702,47.5704,7.6722
CH,1410,Prévondavaux,Fribourg,FR,Broye District,1001,Prévondavaux,2038,46.7313,6.8026
CH,1468,Cheyres,Fribourg,FR,Broye District,1001,Cheyres-Châbles,2055,46.8207,6.7756
CH,1470,Bollion,Fribourg,FR,Broye District,1001,Lully (FR),2025,46.8215,6.832
CH,1470,Seiry,Fribourg,FR,Broye District,1001,Lully (FR),2025,46.8146,6.835
CH,1470,Lully FR,Fribourg,FR,Broye District,1001,Lully (FR),2025,46.8317,6.85
CH,1470,Estavayer-le-Lac,Fribourg,FR,Broye District,1001,Estavayer,2054,46.861,6.8415
CH,1473,Châtillon FR,Fribourg,FR,Broye District,1001,Châtillon (FR),2008,46.83,6.8302
CH,1473,Font,Fribourg,FR,Broye District,1001,Estavayer,2054,46.8483,6.8109
CH,1474,Châbles FR,Fribourg,FR,Broye District,1001,Cheyres-Châbles,2055,46.8313,6.8002
CH,1475,Forel FR,Fribourg,FR,Broye District,1001,Estavayer,2054,46.884,6.88
CH,1475,Montbrelloz,Fribourg,FR,Broye District,1001,Estavayer,2054,46.854,6.8872
CH,1475,Autavaux,Fribourg,FR,Broye District,1001,Estavayer,2054,46.8762,6.8606
CH,1482,Cugy FR,Fribourg,FR,Broye District,1001,Cugy (FR),2011,46.8109,6.8939
CH,1483,Vesin,Fribourg,FR,Broye District,1001,Cugy (FR),2011,46.8052,6.8723
CH,1483,Montet (Broye),Fribourg,FR,Broye District,1001,Les Montets,2050,46.8172,6.8648
CH,1483,Frasses,Fribourg,FR,Broye District,1001,Les Montets,2050,46.8262,6.8668
CH,1484,Granges-de-Vesin,Fribourg,FR,Broye District,1001,Les Montets,2050,46.8107,6.842
CH,1484,Aumont,Fribourg,FR,Broye District,1001,Les Montets,2050,46.7975,6.8551
CH,1485,Nuvilly,Fribourg,FR,Broye District,1001,Nuvilly,2035,46.7841,6.8339
CH,1486,Vuissens,Fribourg,FR,Broye District,1001,Estavayer,2054,46.7346,6.7692
CH,1489,Murist,Fribourg,FR,Broye District,1001,Estavayer,2054,46.796,6.8112
CH,1527,Villeneuve FR,Fribourg,FR,Broye District,1001,Surpierre,2044,46.7421,6.8668
CH,1528,Surpierre,Fribourg,FR,Broye District,1001,Surpierre,2044,46.7474,6.8553
CH,1528,Praratoud,Fribourg,FR,Broye District,1001,Surpierre,2044,46.736,6.8435
CH,1529,Cheiry,Fribourg,FR,Broye District,1001,Surpierre,2044,46.7502,6.8383
CH,1532,Fétigny,Fribourg,FR,Broye District,1001,Fétigny,2016,46.7967,6.9138
CH,1533,Ménières,Fribourg,FR,Broye District,1001,Ménières,2027,46.7853,6.8861
CH,1534,Chapelle (Broye),Fribourg,FR,Broye District,1001,Surpierre,2044,46.7661,6.8499
CH,1541,Bussy FR,Fribourg,FR,Broye District,1001,Estavayer,2054,46.8346,6.8921
CH,1541,Sévaz,Fribourg,FR,Broye District,1001,Sévaz,2043,46.8394,6.8736
CH,1541,Morens FR,Fribourg,FR,Broye District,1001,Estavayer,2054,46.8456,6.9047
CH,1542,Rueyres-les-Prés,Fribourg,FR,Broye District,1001,Estavayer,2054,46.8571,6.9109
CH,1544,Gletterens,Fribourg,FR,Broye District,1001,Gletterens,2022,46.9113,6.9241
CH,1563,Dompierre FR,Fribourg,FR,Broye District,1001,Belmont-Broye,2053,46.8564,6.9906
CH,1564,Domdidier,Fribourg,FR,Broye District,1001,Belmont-Broye,2053,46.8622,7.0145
CH,1565,Vallon,Fribourg,FR,Broye District,1001,Vallon,2045,46.8849,6.9533
CH,1566,Les Friques,Fribourg,FR,Broye District,1001,Saint-Aubin (FR),2041,46.8966,6.9942
CH,1566,St-Aubin FR,Fribourg,FR,Broye District,1001,Saint-Aubin (FR),2041,46.8912,6.9795
CH,1567,Delley,Fribourg,FR,Broye District,1001,Delley-Portalban,2051,46.9132,6.9717
CH,1568,Portalban,Fribourg,FR,Broye District,1001,Delley-Portalban,2051,46.9262,6.9392
CH,1773,Chandon,Fribourg,FR,Broye District,1001,Belmont-Broye,2053,46.8411,7.0436
CH,1773,Russy,Fribourg,FR,Broye District,1001,Belmont-Broye,2053,46.8408,7.0052
CH,1773,Léchelles,Fribourg,FR,Broye District,1001,Belmont-Broye,2053,46.8289,7.0204
CH,1774,Montagny-les-Monts,Fribourg,FR,Broye District,1001,Montagny (FR),2029,46.8016,6.9928
CH,1774,Cousset,Fribourg,FR,Broye District,1001,Montagny (FR),2029,46.8139,6.98
CH,1774,Cousset,Fribourg,FR,Broye District,1001,Montagny (FR),2029,46.8139,6.98
CH,1775,Mannens,Fribourg,FR,Broye District,1001,Montagny (FR),2029,46.7969,6.9702
CH,1775,Grandsivaz,Fribourg,FR,Broye District,1001,Montagny (FR),2029,46.787,6.9823
CH,1776,Montagny-la-Ville,Fribourg,FR,Broye District,1001,Montagny (FR),2029,46.8207,6.9989
CH,1553,Châtonnaye,Fribourg,FR,Glâne District,1002,Châtonnaye,2068,46.7531,6.9382
CH,1608,Chapelle (Glâne),Fribourg,FR,Glâne District,1002,Chapelle (Glâne),2066,46.5879,6.8377
CH,1670,Esmonts,Fribourg,FR,Glâne District,1002,Ursy,2102,46.6445,6.8469
CH,1670,Bionnens,Fribourg,FR,Glâne District,1002,Ursy,2102,46.635,6.8564
CH,1670,Ursy,Fribourg,FR,Glâne District,1002,Ursy,2102,46.6333,6.8358
CH,1673,Gillarens,Fribourg,FR,Glâne District,1002,Rue,2097,46.5879,6.825
CH,1673,Rue,Fribourg,FR,Glâne District,1002,Rue,2097,46.6219,6.8237
CH,1673,Ecublens FR,Fribourg,FR,Glâne District,1002,Ecublens (FR),2072,46.6153,6.807
CH,1673,Auboranges,Fribourg,FR,Glâne District,1002,Auboranges,2061,46.5838,6.8051
CH,1673,Promasens,Fribourg,FR,Glâne District,1002,Rue,2097,46.6022,6.8226
CH,1674,Morlens,Fribourg,FR,Glâne District,1002,Ursy,2102,46.6554,6.8381
CH,1674,Vuarmarens,Fribourg,FR,Glâne District,1002,Ursy,2102,46.6476,6.8284
CH,1674,Montet (Glâne),Fribourg,FR,Glâne District,1002,Montet (Glâne),2089,46.6413,6.813
CH,1675,Mossel,Fribourg,FR,Glâne District,1002,Ursy,2102,46.6139,6.8614
CH,1675,Blessens,Fribourg,FR,Glâne District,1002,Rue,2097,46.6077,6.8395
CH,1675,Vauderens,Fribourg,FR,Glâne District,1002,Ursy,2102,46.6236,6.8511
CH,1676,Chavannes-les-Forts,Fribourg,FR,Glâne District,1002,Siviriez,2099,46.6465,6.8948
CH,1677,Prez-vers-Siviriez,Fribourg,FR,Glâne District,1002,Siviriez,2099,46.6352,6.8745
CH,1678,Siviriez,Fribourg,FR,Glâne District,1002,Siviriez,2099,46.6604,6.8774
CH,1679,Villaraboud,Fribourg,FR,Glâne District,1002,Siviriez,2099,46.66,6.9128
CH,1680,Berlens,Fribourg,FR,Glâne District,1002,Mézières (FR),2087,46.6953,6.9514
CH,1680,Romont FR,Fribourg,FR,Glâne District,1002,Romont (FR),2096,46.7,6.9186
CH,1681,Hennens,Fribourg,FR,Glâne District,1002,Billens-Hennens,2063,46.6816,6.8786
CH,1681,Billens,Fribourg,FR,Glâne District,1002,Billens-Hennens,2063,46.6897,6.8962
CH,1684,Mézières FR,Fribourg,FR,Glâne District,1002,Mézières (FR),2087,46.679,6.9272
CH,1685,Villariaz,Fribourg,FR,Glâne District,1002,Vuisternens-devant-Romont,2113,46.6633,6.9442
CH,1686,Grangettes-près-Romont,Fribourg,FR,Glâne District,1002,Grangettes,2079,46.6717,6.9753
CH,1686,La Neirigue,Fribourg,FR,Glâne District,1002,Vuisternens-devant-Romont,2113,46.684,6.9543
CH,1687,Estévenens,Fribourg,FR,Glâne District,1002,Vuisternens-devant-Romont,2113,46.6661,6.9651
CH,1687,Vuisternens-devant-Romont,Fribourg,FR,Glâne District,1002,Vuisternens-devant-Romont,2113,46.6502,6.9325
CH,1687,La Magne,Fribourg,FR,Glâne District,1002,Vuisternens-devant-Romont,2113,46.6379,6.9299
CH,1688,Sommentier,Fribourg,FR,Glâne District,1002,Vuisternens-devant-Romont,2113,46.6361,6.9144
CH,1688,Lieffrens,Fribourg,FR,Glâne District,1002,Vuisternens-devant-Romont,2113,46.6329,6.8988
CH,1689,Le Châtelard-près-Romont,Fribourg,FR,Glâne District,1002,Le Châtelard,2067,46.6755,6.9949
CH,1690,Villaz-St-Pierre,Fribourg,FR,Glâne District,1002,Villaz,2117,46.7209,6.9621
CH,1690,Lussy FR,Fribourg,FR,Glâne District,1002,Villaz,2117,46.7179,6.9385
CH,1691,Villarimboud,Fribourg,FR,Glâne District,1002,Villaz,2117,46.7409,6.9661
CH,1692,Massonnens,Fribourg,FR,Glâne District,1002,Massonnens,2086,46.6966,6.9761
CH,1694,Chavannes-sous-Orsonnens,Fribourg,FR,Glâne District,1002,Villorsonnens,2114,46.728,6.9891
CH,1694,Villargiroud,Fribourg,FR,Glâne District,1002,Villorsonnens,2114,46.6953,7.0011
CH,1694,Orsonnens,Fribourg,FR,Glâne District,1002,Villorsonnens,2114,46.7145,6.9947
CH,1694,Villarsiviriaux,Fribourg,FR,Glâne District,1002,Villorsonnens,2114,46.6904,7.0186
CH,1697,La Joux FR,Fribourg,FR,Glâne District,1002,Vuisternens-devant-Romont,2113,46.6259,6.9364
CH,1697,Les Ecasseys,Fribourg,FR,Glâne District,1002,Vuisternens-devant-Romont,2113,46.6213,6.9098
CH,1748,Torny-le-Grand,Fribourg,FR,Glâne District,1002,Torny,2115,46.7676,6.9678
CH,1749,Middes,Fribourg,FR,Glâne District,1002,Torny,2115,46.7741,6.9485
CH,1625,Sâles (Gruyère),Fribourg,FR,Gruyère District,1003,Sâles,2152,46.6287,6.9639
CH,1625,Maules,Fribourg,FR,Gruyère District,1003,Sâles,2152,46.643,6.9968
CH,1626,Rueyres-Treyfayes,Fribourg,FR,Gruyère District,1003,Sâles,2152,46.6444,6.9534
CH,1626,Romanens,Fribourg,FR,Gruyère District,1003,Sâles,2152,46.6528,6.9766
CH,1626,Treyfayes,Fribourg,FR,Gruyère District,1003,Sâles,2152,46.6552,6.9575
CH,1627,Vaulruz,Fribourg,FR,Gruyère District,1003,Vaulruz,2155,46.6186,6.985
CH,1628,Vuadens,Fribourg,FR,Gruyère District,1003,Vuadens,2160,46.6106,7.0049
CH,1630,Bulle,Fribourg,FR,Gruyère District,1003,Bulle,2125,46.6021,7.0223
CH,1631,Bulle centre de traitement,Fribourg,FR,Gruyère District,1003,Bulle,2125,46.6075,7.0462
CH,1632,Riaz,Fribourg,FR,Gruyère District,1003,Riaz,2148,46.6428,7.0432
CH,1633,Vuippens,Fribourg,FR,Gruyère District,1003,Marsens,2140,46.6632,7.0812
CH,1633,Marsens,Fribourg,FR,Gruyère District,1003,Marsens,2140,46.6566,7.039
CH,1634,La Roche FR,Fribourg,FR,Gruyère District,1003,La Roche,2149,46.6925,7.1606
CH,1635,La Tour-de-Trême,Fribourg,FR,Gruyère District,1003,Bulle,2125,46.5889,7.0354
CH,1636,Broc,Fribourg,FR,Gruyère District,1003,Broc,2124,46.5985,7.1245
CH,1637,Charmey (Gruyère),Fribourg,FR,Gruyère District,1003,Val-de-Charmey,2163,46.594,7.1959
CH,1638,Morlon,Fribourg,FR,Gruyère District,1003,Morlon,2143,46.6247,7.0917
